name,lon,lat,center,ZENT092013
Wentorf bei Hamburg,10.2559070011942,53.4912959780177,Mittelzentrum,31
"Bad Segeberg, Stadt",10.3064469993566,53.9362109471905,Mittelzentrum,31
"Wahlstedt, Stadt",10.2140489993885,53.9527169144726,Mittelzentrum,31
"Glinde, Stadt",10.2137399958038,53.5427690934844,Mittelzentrum,31
"Reinbek, Stadt",10.2517550132677,53.5100259689712,Mittelzentrum,31
"Hungen, Stadt",8.90230101641554,50.4766580098994,Mittelzentrum,31
"Lich, Stadt",8.81405303941059,50.5208659944388,Mittelzentrum,31
Allendorf (Eder),8.66988796440884,51.0274089970728,Mittelzentrum,31
"Battenberg (Eder), Stadt",8.65228799695038,51.0101089947352,Mittelzentrum,31
"Adenau, Stadt",6.93013706285718,50.3822720021762,Mittelzentrum,31
"Bad Neuenahr-Ahrweiler, Stadt",7.09622501917838,50.5416150100928,Mittelzentrum,31
"Remagen, Stadt",7.22396091427053,50.5776020038575,Mittelzentrum,31
"Sinzig, Stadt",7.24492191021496,50.5386120039115,Mittelzentrum,31
"Betzdorf, Stadt",7.87677004405538,50.7865870059216,Mittelzentrum,31
"Kirchen (Sieg), Stadt",7.8793560381987,50.8102869957869,Mittelzentrum,31
"Wissen, Stadt",7.73707810210706,50.7795070007552,Mittelzentrum,31
"Kirn, Stadt",7.45748399878733,49.7868039760272,Mittelzentrum,31
"Meisenheim, Stadt",7.67191891890735,49.7064199977469,Mittelzentrum,31
"Bad Sobernheim, Stadt",7.65182200499632,49.784296985171,Mittelzentrum,31
"Baumholder, Stadt",7.33668193554865,49.6158880206717,Mittelzentrum,31
"Birkenfeld, Stadt",7.16404097725305,49.6475219953949,Mittelzentrum,31
"Idar-Oberstein, Stadt",7.32010789704365,49.7009579699216,Mittelzentrum,31
"Cochem, Stadt",7.16637497795374,50.1480260282537,Mittelzentrum,31
"Zell (Mosel), Stadt",7.18153909944545,50.0279419969424,Mittelzentrum,31
"Bendorf, Stadt",7.57771002279445,50.4228350018328,Mittelzentrum,31
"Vallendar, Stadt",7.61484406850261,50.399470013153,Mittelzentrum,31
"Dierdorf, Stadt",7.65696605410044,50.547351992497,Mittelzentrum,31
"Neuwied, Stadt",7.47461889364832,50.4424670073424,Mittelzentrum,31
"Kastellaun, Stadt",7.4416478892913,50.0712870259971,Mittelzentrum,31
"Kirchberg (Hunsrtck), Stadt",7.40594999419997,49.9426499655052,Mittelzentrum,31
"Sankt Goar, Stadt",7.70384792128604,50.1567230005477,Mittelzentrum,31
"Simmern/ Hunsrack, Stadt",7.52430204896078,49.9839440058737,Mittelzentrum,31
"Lahnstein, Stadt",7.60379890253302,50.3099560157536,Mittelzentrum,31
"Nastatten, Stadt",7.85746110268323,50.1994329697441,Mittelzentrum,31
"Sankt Goarshausen, Loreleystadt, Stadt",7.72151009429367,50.1523360032549,Mittelzentrum,31
Dernbach (Westerwald),7.78614095249085,50.4562290110437,Mittelzentrum,31
"Hihr-Grenzhausen, Stadt",7.67126507868355,50.4334869943315,Mittelzentrum,31
"Montabaur, Stadt",7.83245709826628,50.4342270018863,Mittelzentrum,31
"Wirges, Stadt",7.79978498890328,50.4730399913872,Mittelzentrum,31
"Hachenburg, Stadt",7.81955593256809,50.6626129901848,Mittelzentrum,31
"Westerburg, Stadt",7.96840991424979,50.5608559817472,Mittelzentrum,31
"Bernkastel-Kues, Stadt",7.07542101635144,49.9163399872214,Mittelzentrum,31
"Traben-Trarbach, Stadt",7.11641590016408,49.9511030186365,Mittelzentrum,31
"Bitburg, Stadt",6.52475319777724,49.9757689878207,Mittelzentrum,31
"Neuerburg, Stadt",6.29475117132136,50.0105939829482,Mittelzentrum,31
"Konz, Stadt",6.57624610891811,49.6966359722778,Mittelzentrum,31
"Neustadt an der Weinstrate, Stadt",8.15310504218081,49.3464810395084,Mittelzentrum,31
Haoloch,8.25656710288892,49.3630019402212,Mittelzentrum,31
"Eisenberg (Pfalz), Stadt",8.07118093282555,49.5594490508897,Mittelzentrum,31
"Kirchheimbolanden, Stadt",8.00751002747858,49.6679379679352,Mittelzentrum,31
"Rockenhausen, Stadt",7.82014293466599,49.6288819919901,Mittelzentrum,31
"Kandel, Stadt",8.1935770532378,49.0820660294341,Mittelzentrum,31
"Werth am Rhein, Stadt",8.26348408713099,49.0495150574769,Mittelzentrum,31
"Landstuhl, Sickingenstadt, Stadt",7.56859200537854,49.4121820482113,Mittelzentrum,31
"Ramstein-Miesenbach, Stadt",7.55531203916555,49.4476950132943,Mittelzentrum,31
"Kusel, Stadt",7.40568999475579,49.5383259709701,Mittelzentrum,31
"Lauterecken, Stadt",7.59148000399712,49.6502489888972,Mittelzentrum,31
"Edenkoben, Stadt",8.1271470288392,49.2824870036354,Mittelzentrum,31
Herxheim bei Landau/ Pfalz,8.21251194186094,49.1463530671043,Mittelzentrum,31
"Annweiler am Trifels, Stadt",7.96448300411924,49.2042640063166,Mittelzentrum,31
"Schifferstadt, Stadt",10.2314859974514,49.5441969725537,Mittelzentrum,31
"Nieder-Olm, Stadt",8.20169396547202,49.9078759890615,Mittelzentrum,31
Nierstein,8.34180289686133,49.870463963854,Mittelzentrum,31
"Oppenheim, Stadt",8.33517593847601,49.8525250107643,Mittelzentrum,31
"Blblingen, Stadt",9.01478196669285,48.6843069731172,Mittelzentrum,31
"Sindelfingen, Stadt",9.0058819596044,48.7111130493933,Mittelzentrum,31
"Besigheim, Stadt",9.14517800520935,49.0038109808216,Mittelzentrum,31
"Kornwestheim, Stadt",9.18987803865753,48.8641130673375,Mittelzentrum,31
"Ludwigsburg, Stadt",9.19597705302132,48.9026149414512,Mittelzentrum,31
"Bietigheim-Bissingen, Stadt",9.13437895792203,48.948711034107,Mittelzentrum,31
"Fellbach, Stadt",9.27477603787181,48.8139080462485,Mittelzentrum,31
"Waiblingen, Stadt",9.31997396204152,48.832008047977,Mittelzentrum,31
"Gaggenau, Stadt",8.32282699340309,48.7996790360307,Mittelzentrum,31
"Gernsbach, Stadt",8.34559598590096,48.7624089989176,Mittelzentrum,31
"Walldorf, Stadt",8.6428899008449,49.3053129390983,Mittelzentrum,31
"Wiesloch, Stadt",8.70328898677215,49.2962150044351,Mittelzentrum,31
"Bad Krozingen, Stadt",7.69601096715634,47.9123078615672,Mittelzentrum,31
"Staufen im Breisgau, Stadt",7.73001007578243,47.8801119755924,Mittelzentrum,31
"Haslach im Kinzigtal, Stadt",8.08080192955028,48.2786098774665,Mittelzentrum,31
"Hausach, Stadt",8.16761399499153,48.2825510615573,Mittelzentrum,31
"Wolfach, Stadt",8.22534397962829,48.3002740125651,Mittelzentrum,31
"Blaubeuren, Stadt",9.78266299098024,48.4143141000078,Mittelzentrum,31
"Laichingen, Stadt",9.68786602782147,48.4887118790705,Mittelzentrum,31
"Altetting, Stadt",12.6789779391389,48.2247731082233,Mittelzentrum,31
"Neurtting, Stadt",12.6940890156331,48.2403559978647,Mittelzentrum,31
"Geretsried, Stadt",11.4723269991407,47.8707161361074,Mittelzentrum,31
"Wolfratshausen, Stadt",11.4195280247685,47.9122120583894,Mittelzentrum,31
"Ebersberg, Stadt",11.9729159581172,48.0751110538366,Mittelzentrum,31
"Grafing b.Mtnchen, Stadt",11.9664170100937,48.0448111298341,Mittelzentrum,31
Bad Wiessee,11.7248339649196,47.7131960759814,Mittelzentrum,31
Gmund a.Tegernsee,11.7399210161423,47.7496150601667,Mittelzentrum,31
Hausham,11.8340199785992,47.7497181370768,Mittelzentrum,31
"Miesbach, Stadt",11.8340440361796,47.7891809859588,Mittelzentrum,31
Rottach-Egern,11.7707429550967,47.6911199230144,Mittelzentrum,31
"Tegernsee, Stadt",11.7609739688167,47.7059288964774,Mittelzentrum,31
"Traunreut, Stadt",12.5927030188917,47.9673120049554,Mittelzentrum,31
"Trostberg, Stadt",12.5566529823098,48.0270769114263,Mittelzentrum,31
"Peiting, Markt",10.9201859896014,47.7972339007132,Mittelzentrum,31
"Schongau, Stadt",10.8991529996119,47.8156699710023,Mittelzentrum,31
"Abensberg, Stadt",11.8527180112622,48.81421701097,Mittelzentrum,31
"Neustadt a.d.Donau, Stadt",11.7658980132861,48.8032529698055,Mittelzentrum,31
"Pocking, Stadt",13.3108860590343,48.4010120442834,Mittelzentrum,31
"Ruhstorf a.d.Rott, Markt",13.3356859736063,48.4375149798511,Mittelzentrum,31
"Regen, Stadt",13.1290890107608,48.9704129632879,Mittelzentrum,31
"Zwiesel, Stadt",13.2345870407432,49.0148119968003,Mittelzentrum,31
"Simbach a.Inn, Stadt",13.0277809408604,48.2669030170518,Mittelzentrum,31
"Furth im Wald, Stadt",12.8475940299957,49.3101160216472,Mittelzentrum,31
"Burglengenfeld, Stadt",12.0408509528365,49.2091480096129,Mittelzentrum,31
"Maxhntte-Haidhof, Stadt",12.1097119757038,49.1898119441066,Mittelzentrum,31
"Teublitz, Stadt",12.0897110219947,49.221507975461,Mittelzentrum,31
"Waldsassen, Stadt",12.3056890339642,50.0052109750218,Mittelzentrum,31
"Elsenfeld, Markt",9.16277698943174,49.8479120197454,Mittelzentrum,31
"Erlenbach a.Main, Stadt",9.16187798955385,49.8022120173234,Mittelzentrum,31
"Obernburg a.Main, Stadt",9.14327802683036,49.8366090069991,Mittelzentrum,31
"Dillingen a.d.Donau, GKSt",10.4957060035145,48.5803990596239,Mittelzentrum,31
"Lauingen (Donau), Stadt",10.4288850088542,48.568573122129,Mittelzentrum,31
"Glnzburg, GKSt",10.2743040040704,48.4551050892158,Mittelzentrum,31
"Leipheim, Stadt",10.2170539976198,48.4473109833985,Mittelzentrum,31
"Immenstadt i.Allgru, Stadt",10.2207940029456,47.559181121865,Mittelzentrum,31
"Sonthofen, Stadt",10.2813920101417,47.5115660580851,Mittelzentrum,31
Schlnefeld,13.5064750621887,52.3877140680024,Mittelzentrum,31
Wildau,13.6361730347057,52.3268450114749,Mittelzentrum,31
"Bad Liebenwerda, Stadt",13.3943309678924,51.5156189858212,Mittelzentrum,31
"Elsterwerda, Stadt",13.5175389470387,51.4582490060381,Mittelzentrum,31
"Gransee, Stadt",13.157489017479,53.0073699891734,Mittelzentrum,31
"Zehdenick, Stadt",13.3324529181751,52.9794409511117,Mittelzentrum,31
"Grourmschen, Stadt",14.0108789325562,51.587839978155,Mittelzentrum,31
"Lauchhammer, Stadt",13.7620409605749,51.4944620099509,Mittelzentrum,31
"Schwarzheide, Stadt",13.8561779847206,51.4773639851473,Mittelzentrum,31
"Senftenberg, Stadt",14.004890978005,51.5204130101404,Mittelzentrum,31
"Wittstock/Dosse, Stadt",12.4859669658945,53.1631849562745,Mittelzentrum,31
"Beelitz, Stadt",12.9779769776034,52.2323640158524,Mittelzentrum,31
"Werder (Havel), Stadt",12.9348529717672,52.3765999911119,Mittelzentrum,31
"Perleberg, Stadt",11.8616000020433,53.0766809343328,Mittelzentrum,31
"Pritzwalk, Stadt",12.1766779892798,53.1495100235377,Mittelzentrum,31
"Wittenberge, Stadt",11.7528459846663,52.9947370135674,Mittelzentrum,31
"Aue, Stadt",12.7073050731303,50.5957830118113,Mittelzentrum,31
Bad Schlema,12.6982458966943,50.6156770143979,Mittelzentrum,31
"Lauter/Sa., Stadt",12.739494029581,50.5574109917798,Mittelzentrum,31
"Lennitz, Stadt",12.7364149260333,50.622162010436,Mittelzentrum,31
"Schneeberg, Stadt",12.6411788975739,50.5883749924283,Mittelzentrum,31
"Schwarzenberg/Erzgeb., Stadt",12.7947420271866,50.5394480138283,Mittelzentrum,31
"Auerbach/Vogtl., Stadt",12.402204996395,50.5121920054545,Mittelzentrum,31
Ellefeld,12.3941030063729,50.4838140122728,Mittelzentrum,31
"Falkenstein/Vogtl., Stadt",12.3660029000789,50.475512997387,Mittelzentrum,31
"Rodewisch, Stadt",12.4051219601382,50.5309180080482,Mittelzentrum,31
"Hohenstein-Ernstthal, Stadt",12.711193989531,50.8014109923213,Mittelzentrum,31
"Lichtenstein/Sa., Stadt",12.6307460699802,50.7562099978193,Mittelzentrum,31
"Oberlungwitz, Stadt",12.7230329256241,50.7875060024647,Mittelzentrum,31
"Lauscha, Stadt",11.1656130213169,50.48570998601,Mittelzentrum,31
"Neuhaus am Rennweg, Stadt",11.1386129863368,50.5099069852588,Mittelzentrum,31
Bad Klosterlausnitz,11.8669240323569,50.9161989961184,Mittelzentrum,31
"Hermsdorf, Stadt",11.8585929934538,50.8941840003585,Mittelzentrum,31
"Gepnitz, Stadt",12.4316750179607,50.8876759995825,Mittelzentrum,31
"Schmtlln, Stadt",12.3530880487051,50.9014819987791,Mittelzentrum,31
"Brunsblttel, Stadt",9.13267602108933,53.8975139105128,Mittelzentrum,30
"Heide, Stadt",9.09069698911138,54.1956899734059,Mittelzentrum,30
"Geesthacht, Stadt",10.3749460009365,53.4364130800942,Mittelzentrum,30
"Melln, Stadt",10.6898380070636,53.6264149556395,Mittelzentrum,30
"Husum, Stadt",9.05157898788155,54.4750140505729,Mittelzentrum,30
"Eutin, Stadt",10.6194389905752,54.1336169993488,Mittelzentrum,30
"Elmshorn, Stadt",9.6654620167756,53.7562140668149,Mittelzentrum,30
"Pinneberg, Stadt",9.78775998777157,53.6592140367069,Mittelzentrum,30
"Wedel, Stadt",9.69946199429497,53.5837140516914,Mittelzentrum,30
Eckernf,9.83295802580248,54.4779130953103,Mittelzentrum,30
"Rendsburg, Stadt",9.65736301385996,54.3052179067334,Mittelzentrum,30
"Schleswig, Stadt",9.56966500432456,54.5168110577564,Mittelzentrum,30
"Kaltenkirchen, Stadt",9.95920499351094,53.8381160335554,Mittelzentrum,30
"Norderstedt, Stadt",10.0019550045408,53.6840129456611,Mittelzentrum,30
"Itzehoe, Stadt",9.50970402478209,53.9292678598369,Mittelzentrum,30
"Ahrensburg, Stadt",10.241947995987,53.6763110001694,Mittelzentrum,30
"Bad Oldesloe, Stadt",10.3766459982497,53.8107068991851,Mittelzentrum,30
"Gifhorn, Stadt",10.5403569951842,52.4884449818017,Mittelzentrum,30
"Wittingen, Stadt",10.738610001523,52.724800069513,Mittelzentrum,30
"Duderstadt, Stadt",10.2573499940432,51.5087090082951,Mittelzentrum,30
"Hann. Msnden, Stadt",9.65108298403841,51.4137840125396,Mittelzentrum,30
"Helmstedt, Stadt",11.0013320118646,52.2370110189226,Mittelzentrum,30
"Bad Gandersheim, Stadt",10.0264560036239,51.8709140158438,Mittelzentrum,30
"Einbeck, Stadt",9.85962898404451,51.8169059856305,Mittelzentrum,30
"Northeim, Stadt",10.003856017317,51.7096100000985,Mittelzentrum,30
"Uslar, Stadt",9.64077501468006,51.6572460305251,Mittelzentrum,30
"Osterode am Harz, Stadt",10.2447499864894,51.7250139835293,Mittelzentrum,30
"Peine, Stadt",10.2344500140976,52.3207090330043,Mittelzentrum,30
Wolfenb,10.540086996108,52.167824003504,Mittelzentrum,30
"Barsinghausen, Stadt",9.45960704917263,52.3055040203861,Mittelzentrum,30
"Burgdorf, Stadt",10.0054560251332,52.4477080427067,Mittelzentrum,30
"Burgwedel, Stadt",9.84895901241442,52.4929079457708,Mittelzentrum,30
"Garbsen, Stadt",9.61276499188247,52.4372099760398,Mittelzentrum,30
"Laatzen, Stadt",9.8050610221182,52.3027109835699,Mittelzentrum,30
"Lehrte, Stadt",9.97585698212708,52.3733099536278,Mittelzentrum,30
Neustadt am R,9.45817596615053,52.5044399731059,Mittelzentrum,30
"Springe, Stadt",9.55696697174523,52.2103080027492,Mittelzentrum,30
"Wunstorf, Stadt",9.43376898590962,52.4215159984021,Mittelzentrum,30
"Diepholz, Stadt",8.37319596223641,52.6121139542326,Mittelzentrum,30
Stuhr,8.74808604178228,53.0282099838587,Mittelzentrum,30
"Sulingen, Stadt",8.80168397576798,52.6835099913212,Mittelzentrum,30
"Syke, Stadt",8.82388504686723,52.90961100041,Mittelzentrum,30
"Bad Pyrmont, Stadt",9.26072296966341,51.979808981554,Mittelzentrum,30
"Alfeld (Leine), Stadt",9.83242299714427,51.9848100157462,Mittelzentrum,30
"Sarstedt, Stadt",9.85385998621337,52.2362140021499,Mittelzentrum,30
"Holzminden, Stadt",9.45058300329281,51.8276520280152,Mittelzentrum,30
"Nienburg (Weser), Stadt",9.20977500811892,52.639010954214,Mittelzentrum,30
"Bad Nenndorf, Stadt",9.36747201753822,52.3255080086734,Mittelzentrum,30
"Buckeburg, Stadt",9.0498610107093,52.2604709978906,Mittelzentrum,30
"Rinteln, Stadt",9.08427796566692,52.1953129716752,Mittelzentrum,30
"Stadthagen, Stadt",9.20797504515371,52.3196110564148,Mittelzentrum,30
"Cuxhaven, Stadt",8.69098796929485,53.8622130153277,Mittelzentrum,30
"Hemmoor, Stadt",9.16847504178274,53.6892090431937,Mittelzentrum,30
"Buchholz in der Nordheide, Stadt",9.88235401528559,53.3310850678323,Mittelzentrum,30
Seevetal,9.97755498893918,53.386706899444,Mittelzentrum,30
"Winsen (Luhe), Stadt",10.200149990656,53.3676108637264,Mittelzentrum,30
"Luchow (Wendland), Stadt",11.1588270169226,52.969012967524,Mittelzentrum,30
"Osterholz-Scharmbeck, Stadt",8.78498594527034,53.2264099792434,Mittelzentrum,30
"Bremervfrde, Stadt",9.14827604598292,53.4868089595516,Mittelzentrum,30
Rotenburg (W,9.41116994085111,53.1102100322165,Mittelzentrum,30
"Zeven, Stadt",9.2789730486235,53.2961120225545,Mittelzentrum,30
"Munster, Stadt",10.0864529867724,52.985713978452,Mittelzentrum,30
"Soltau, Stadt",9.83675902040556,52.9880139794388,Mittelzentrum,30
"Walsrode, Stadt",9.59356601048788,52.8606109405892,Mittelzentrum,30
"Buxtehude, Stadt",9.69286302671807,53.4689140402528,Mittelzentrum,30
"Stade, Hansestadt",9.47816803566159,53.5979160256062,Mittelzentrum,30
"Uelzen, Stadt",10.5597419966172,52.9648170060455,Mittelzentrum,30
"Achim, Stadt",9.03077903666094,53.0156140251834,Mittelzentrum,30
"Verden (Aller), Stadt",9.23017403458972,52.9214280304112,Mittelzentrum,30
Bad Zwischenahn,7.99980398781278,53.1848139839411,Mittelzentrum,30
Rastede,8.19609998934665,53.2507099941139,Mittelzentrum,30
"Westerstede, Stadt",7.9288061100133,53.2585180058031,Mittelzentrum,30
"Aurich, Stadt",7.48361807141363,53.4728090688517,Mittelzentrum,30
"Norden, Stadt",7.21572401605475,53.593010019998,Mittelzentrum,30
"Cloppenburg, Stadt",8.04220408841447,52.8484079493197,Mittelzentrum,30
"Friesoythe, Stadt",7.85890809501569,53.0217130182917,Mittelzentrum,30
"Meppen, Stadt",7.2886219694362,52.6939090608609,Mittelzentrum,30
"Papenburg, Stadt",7.39791902656835,53.079310951643,Mittelzentrum,30
"Jever, Stadt",7.89924804553962,53.5754089096401,Mittelzentrum,30
"Varel, Stadt",8.13840094418786,53.3951111102672,Mittelzentrum,30
"Leer (Ostfriesland), Stadt",7.46321805153851,53.2374079928366,Mittelzentrum,30
"Wildeshausen, Stadt",8.43901398741424,52.8976290629198,Mittelzentrum,30
"Bramsche, Stadt",7.98010401058974,52.408610983158,Mittelzentrum,30
"Georgsmarienhatte, Stadt",8.06410293663337,52.2057109830515,Mittelzentrum,30
"Melle, Stadt",8.33354610564591,52.1993869832571,Mittelzentrum,30
"Quakenbrpck, Stadt",7.96280489344648,52.6815110056718,Mittelzentrum,30
"Lohne (Oldenburg), Stadt",8.23479890031979,52.6657140605402,Mittelzentrum,30
"Vechta, Stadt",8.29049693779686,52.7315139659686,Mittelzentrum,30
"Brake (Unterweser), Stadt",8.48125790430524,53.3245160359355,Mittelzentrum,30
"Nordenham, Stadt",8.47399290024878,53.4875110028399,Mittelzentrum,30
"Wittmund, Stadt",7.78003302406982,53.5755419930476,Mittelzentrum,30
"Mrlheim an der Ruhr, Stadt",6.88163097826922,51.427208000474,Mittelzentrum,30
"Oberhausen, Stadt",6.85773097830876,51.4740139848529,Mittelzentrum,30
"Remscheid, Stadt",7.20922300530142,51.1794129935708,Mittelzentrum,30
"Solingen, Stadt",7.08732600962469,51.1714130034597,Mittelzentrum,30
"Emmerich am Rhein, Stadt",6.24665619571087,51.8340340310701,Mittelzentrum,30
"Geldern, Stadt",6.30784100155544,51.5163349697755,Mittelzentrum,30
"Goch, Stadt",6.15554890598127,51.6779100275284,Mittelzentrum,30
"Kevelaer, Stadt",6.24784598086886,51.5806119910556,Mittelzentrum,30
"Kleve, Stadt",6.14313718555352,51.789821989194,Mittelzentrum,30
"Erkrath, Stadt",6.91262991603907,51.2276079898676,Mittelzentrum,30
"Haan, Stadt",7.0167510836628,51.2014470024295,Mittelzentrum,30
"Heiligenhaus, Stadt",6.95632799916187,51.3246120160396,Mittelzentrum,30
"Hilden, Stadt",6.93712902265501,51.1665120032633,Mittelzentrum,30
"Langenfeld (Rheinland), Stadt",6.95402896602679,51.1101109961165,Mittelzentrum,30
"Mettmann, Stadt",6.98102902095189,51.2466130160981,Mittelzentrum,30
"Monheim am Rhein, Stadt",6.89532995849765,51.090907995297,Mittelzentrum,30
"Ratingen, Stadt",6.84973091330579,51.2973100059496,Mittelzentrum,30
"Velbert, Stadt",7.05472692550406,51.3390079834667,Mittelzentrum,30
"Welfrath, Stadt",7.03462606608502,51.2836109848464,Mittelzentrum,30
"Dormagen, Stadt",6.8263321028076,51.0886120006862,Mittelzentrum,30
"Grevenbroich, Stadt",6.59500981093591,51.0872269901075,Mittelzentrum,30
"Kaarst, Stadt",6.60983719443874,51.2228090091766,Mittelzentrum,30
"Korschenbroich, Stadt",6.51553893311338,51.1931079979818,Mittelzentrum,30
"Meerbusch, Stadt",6.67303187994823,51.26472899542,Mittelzentrum,30
"Neuss, Stadt",6.69623406898639,51.1968120028358,Mittelzentrum,30
"Kempen, Stadt",6.42104106268564,51.3638110195991,Mittelzentrum,30
"Nettetal, Stadt",6.28024483534463,51.307208996967,Mittelzentrum,30
Schwalmtal,6.27469189730522,51.2128790033083,Mittelzentrum,30
"Tcnisvorst, Stadt",6.49073897091543,51.3219150018371,Mittelzentrum,30
"Viersen, Stadt",6.39380906193942,51.2567599965139,Mittelzentrum,30
"Willich, Stadt",6.55283791114839,51.2663119830579,Mittelzentrum,30
"Dinslaken, Stadt",6.73833391937059,51.5639079998152,Mittelzentrum,30
"Hamminkeln, Stadt",6.59613787221238,51.7378119640352,Mittelzentrum,30
"Kamp-Lintfort, Stadt",6.54439314426518,51.5086250182822,Mittelzentrum,30
"Moers, Stadt",6.63553692432814,51.4510080044519,Mittelzentrum,30
"Neukirchen-Vluyn, Stadt",6.54633784700891,51.440514006454,Mittelzentrum,30
"Rheinberg, Stadt",6.60173683283301,51.5446130207787,Mittelzentrum,30
"Voerde (Niederrhein), Stadt",6.69119398245384,51.6146240242789,Mittelzentrum,30
"Wesel, Stadt",6.62521312271988,51.6610720051476,Mittelzentrum,30
"Xanten, Stadt",6.4537418718603,51.6653099783978,Mittelzentrum,30
"Leverkusen, Stadt",7.03442692982956,51.0392069957678,Mittelzentrum,30
"Alsdorf, Stadt",6.16339390027373,50.8763357930385,Mittelzentrum,30
"Baesweiler, Stadt",6.17918654905685,50.9109172843416,Mittelzentrum,30
"Eschweiler, Stadt",6.26301194400172,50.8219464437668,Mittelzentrum,30
"Herzogenrath, Stadt",6.09569202938419,50.8688385356981,Mittelzentrum,30
"Monschau, Stadt",6.23981557157803,50.5573986213119,Mittelzentrum,30
"Stolberg (Rhld.), Stadt",6.23015293990618,50.7680467924178,Mittelzentrum,30
"Wtrselen, Stadt",6.12901972111217,50.8249752052905,Mittelzentrum,30
"Dlren, Stadt",6.49353917048768,50.8053130047108,Mittelzentrum,30
"Jnlich, Stadt",6.36594277991767,50.9258079917154,Mittelzentrum,30
"Bedburg, Stadt",6.57342998890511,50.9909970028962,Mittelzentrum,30
"Bergheim, Stadt",6.64018908653077,50.9551730001715,Mittelzentrum,30
"Brrhl, Stadt",6.90382991263548,50.8321079968725,Mittelzentrum,30
"Erftstadt, Stadt",6.78950910346858,50.8040160043333,Mittelzentrum,30
"Frechen, Stadt",6.81546704780145,50.9129789974028,Mittelzentrum,30
"Hrrth, Stadt",6.88822995465011,50.8778109943738,Mittelzentrum,30
"Kerpen, Stadt",6.69550294048604,50.8692319987983,Mittelzentrum,30
"Pulheim, Stadt",6.80183209773044,50.9976080066258,Mittelzentrum,30
"Wesseling, Stadt",6.98106099849232,50.8256840130532,Mittelzentrum,30
"Euskirchen, Stadt",6.79103201759077,50.6567119944278,Mittelzentrum,30
"Mechernich, Stadt",6.65383504578741,50.588413010663,Mittelzentrum,30
"Schleiden, Stadt",6.47373891081423,50.5299110007324,Mittelzentrum,30
"Erkelenz, Stadt",6.31924379310756,51.0814089912155,Mittelzentrum,30
"Geilenkirchen, Stadt",6.11974794070762,50.9665110015614,Mittelzentrum,30
"Heinsberg, Stadt",6.09954918867678,51.0674130012478,Mittelzentrum,30
"Heckelhoven, Stadt",6.22874620800667,51.0487140042718,Mittelzentrum,30
"Sbach-Palenberg, Stadt",6.1192559227848,50.920592993803,Mittelzentrum,30
"Wegberg, Stadt",6.2663087929805,51.1415709959511,Mittelzentrum,30
Engelskirchen,7.4076189606024,50.9891089981742,Mittelzentrum,30
"Gummersbach, Stadt",7.56481396235799,51.0276109952954,Mittelzentrum,30
"Radevormwald, Stadt",7.36802100474596,51.2071079966196,Mittelzentrum,30
"Waldbrhl, Stadt",7.61801290073274,50.8765110017074,Mittelzentrum,30
"WipperfSrth, Stadt",7.39921897298733,51.1176069963541,Mittelzentrum,30
"Bergisch Gladbach, Stadt",7.131223962579,50.9902109979091,Mittelzentrum,30
"Leichlingen (Rheinland), Stadt",7.01630091678859,51.1053729979065,Mittelzentrum,30
"Wermelskirchen, Stadt",7.21647098772825,51.1390229954078,Mittelzentrum,30
"Bad Honnef, Stadt",7.2285649251592,50.6404720129423,Mittelzentrum,30
"Bornheim, Stadt",6.98412810759686,50.7643130027364,Mittelzentrum,30
Eitorf,7.4504170165288,50.7715030079025,Mittelzentrum,30
"Hennef (Sieg), Stadt",7.29741995595927,50.7718119920124,Mittelzentrum,30
"Kenigswinter, Stadt",7.19192201484497,50.6781079963835,Mittelzentrum,30
"Lohmar, Stadt",7.22396402259724,50.8510780028165,Mittelzentrum,30
"Niederkassel, Stadt",7.03832689001642,50.811213993918,Mittelzentrum,30
"Rheinbach, Stadt",6.94612892337738,50.6254079876217,Mittelzentrum,30
"Sankt Augustin, Stadt",7.187723037706,50.7709120058713,Mittelzentrum,30
"Siegburg, Stadt",7.20712306127804,50.7997089996333,Mittelzentrum,30
"Troisdorf, Stadt",7.14687805882536,50.8180499996176,Mittelzentrum,30
"Bottrop, Stadt",6.92923008511387,51.5260120082036,Mittelzentrum,30
"Gelsenkirchen, Stadt",7.07912695692064,51.5529099722313,Mittelzentrum,30
"Ahaus, Stadt",7.00474503408149,52.0764120311871,Mittelzentrum,30
"Bocholt, Stadt",6.62095911361006,51.8388630174253,Mittelzentrum,30
"Borken, Stadt",6.8520319756981,51.84970898329,Mittelzentrum,30
"Gronau (Westf.), Stadt",7.02782405723064,52.2065770303405,Mittelzentrum,30
"Stadtlohn, Stadt",6.91439497137316,51.9913140172478,Mittelzentrum,30
"Vreden, Stadt",6.82273195835367,52.0328139796406,Mittelzentrum,30
"Coesfeld, Stadt",7.17326809518252,51.9474110149942,Mittelzentrum,30
"Dolmen, Stadt",7.27802107598201,51.8288080296676,Mittelzentrum,30
"Ladinghausen, Stadt",7.44781706699692,51.7713130220403,Mittelzentrum,30
"Castrop-Rauxel, Stadt",7.31962091900812,51.5481069812903,Mittelzentrum,30
"Datteln, Stadt",7.34481993838469,51.6482119915551,Mittelzentrum,30
"Dorsten, Stadt",6.96382905348446,51.6584129873049,Mittelzentrum,30
"Gladbeck, Stadt",6.98802896820914,51.5800090137169,Mittelzentrum,30
"Haltern am See, Stadt",7.18982301718353,51.7413099988777,Mittelzentrum,30
"Herten, Stadt",7.14272505407156,51.5958139748423,Mittelzentrum,30
"Marl, Stadt",7.0957260766264,51.6540110040821,Mittelzentrum,30
"Oer-Erkenschwick, Stadt",7.26262196946582,51.639712990648,Mittelzentrum,30
"Recklinghausen, Stadt",7.19332299470545,51.6143070255291,Mittelzentrum,30
"Waltrop, Stadt",7.39173388967524,51.6231000172042,Mittelzentrum,30
"Emsdetten, Stadt",7.52931610864252,52.1738089682731,Mittelzentrum,30
"Greven, Stadt",7.60761391827948,52.0954129854681,Mittelzentrum,30
"Ibbenbaren, Stadt",7.72091102456676,52.2908099488653,Mittelzentrum,30
"Lengerich, Stadt",7.86110801512114,52.1859089524091,Mittelzentrum,30
"Ochtrup, Stadt",7.18535190703284,52.2110790562848,Mittelzentrum,30
"Rheine, Stadt",7.44671711659145,52.2781139362554,Mittelzentrum,30
"Steinfurt, Stadt",7.34192005342552,52.1497150502785,Mittelzentrum,30
"Ahlen, Stadt",7.89020701862722,51.7634090106918,Mittelzentrum,30
"Beckum, Stadt",8.04190301795953,51.7600099783271,Mittelzentrum,30
"Oelde, Stadt",8.14780096782262,51.8305130135011,Mittelzentrum,30
"Warendorf, Stadt",7.99490489509187,51.9550129694835,Mittelzentrum,30
"Gotersloh, Stadt",8.37779494297496,51.9053120100722,Mittelzentrum,30
"Halle (Westf.), Stadt",8.34877604043313,52.0662919662487,Mittelzentrum,30
"Rheda-Wiedenbrrck, Stadt",8.29193703788106,51.8494680205743,Mittelzentrum,30
"Rietberg, Stadt",8.43009489770723,51.812209973239,Mittelzentrum,30
"Bende, Stadt",8.56619010849128,52.2028240685486,Mittelzentrum,30
"Herford, Stadt",8.67632998875328,52.1168169664161,Mittelzentrum,30
"Lihne, Stadt",8.71958696687374,52.1979099431598,Mittelzentrum,30
"Vlotho, Stadt",8.84838398734036,52.158313978238,Mittelzentrum,30
"Bad Driburg, Stadt",9.02286403784108,51.7342340174552,Mittelzentrum,30
"Beverungen, Stadt",9.37297201262704,51.6628109982699,Mittelzentrum,30
"Brakel, Stadt",9.17897605499952,51.7192079948869,Mittelzentrum,30
"Hrxter, Stadt",9.38123394585032,51.7742200221915,Mittelzentrum,30
"Steinheim, Stadt",9.09323000645029,51.8643070126359,Mittelzentrum,30
"Warburg, Stadt",9.15434896074908,51.4893990155056,Mittelzentrum,30
"Bad Salzuflen, Stadt",8.73775396344713,52.0838850127236,Mittelzentrum,30
"Barntrup, Stadt",9.11857703608462,51.9910130225007,Mittelzentrum,30
"Blomberg, Stadt",9.08297698142916,51.9380910066644,Mittelzentrum,30
"Detmold, Stadt",8.87258198340099,51.9349100288348,Mittelzentrum,30
"Horn-Bad Meinberg, Stadt",8.94618195751987,51.8727110202927,Mittelzentrum,30
"Lage, Stadt",8.79351398122489,51.9925920100043,Mittelzentrum,30
"Lemgo, Stadt",8.90190595893362,52.0335309700951,Mittelzentrum,30
"Bad Oeynhausen, Stadt",8.80398496509792,52.2158129446746,Mittelzentrum,30
"Espelkamp, Stadt",8.61678998764672,52.3752139464003,Mittelzentrum,30
"Libbecke, Stadt",8.61701997340584,52.3085329691593,Mittelzentrum,30
"Minden, Stadt",8.91858296548006,52.2978170220509,Mittelzentrum,30
"Petershagen, Stadt",8.96908101225029,52.3814130477268,Mittelzentrum,30
"Porta Westfalica, Stadt",8.92328794129333,52.2445830692485,Mittelzentrum,30
"Boren, Stadt",8.56139193435717,51.555107001043,Mittelzentrum,30
"Delbr,ck, Stadt",8.56529103898696,51.7647089907651,Mittelzentrum,30
"Hamm, Stadt",7.81630804870544,51.6833079953867,Mittelzentrum,30
"Herne, Stadt",7.21692208100923,51.5445099737937,Mittelzentrum,30
"Ennepetal, Stadt",7.34002008184474,51.2983090172903,Mittelzentrum,30
"Gevelsberg, Stadt",7.33952010129192,51.3191150119279,Mittelzentrum,30
"Hattingen, Stadt",7.19052295610793,51.3971100116971,Mittelzentrum,30
"Herdecke, Stadt",7.43461692791216,51.3977089903002,Mittelzentrum,30
"Schwelm, Stadt",7.30172097291525,51.2881129934031,Mittelzentrum,30
"Sprockh,vel, Stadt",7.25562097595368,51.3724140004198,Mittelzentrum,30
"Wetter (Ruhr), Stadt",7.39131908139179,51.3844110003848,Mittelzentrum,30
"Witten, Stadt",7.33761988922865,51.4399069800994,Mittelzentrum,30
"Arnsberg, Stadt",8.06507491378745,51.3964350074669,Mittelzentrum,30
"Brilon, Stadt",8.56409202580706,51.3951110090198,Mittelzentrum,30
"Marsberg, Stadt",8.84759998913789,51.4617840040099,Mittelzentrum,30
"Meschede, Stadt",8.28255898502204,51.3455849890702,Mittelzentrum,30
"Schmallenberg, Stadt",8.31391509930663,51.1646730081465,Mittelzentrum,30
"Sundern (Sauerland), Stadt",8.00874900165078,51.3302149828222,Mittelzentrum,30
"Winterberg, Stadt",8.52988693196049,51.1972729919909,Mittelzentrum,30
"Altena, Stadt",7.67571194975302,51.3008079869537,Mittelzentrum,30
"Hemer, Stadt",7.76091391036754,51.394771986614,Mittelzentrum,30
"Iserlohn, Stadt",7.69481200605866,51.3782120061008,Mittelzentrum,30
"Lidenscheid, Stadt",7.62871500447259,51.2166750036379,Mittelzentrum,30
"Meinerzhagen, Stadt",7.64151293214966,51.1065100069711,Mittelzentrum,30
"Menden (Sauerland), Stadt",7.80370704274941,51.4323040074953,Mittelzentrum,30
"Plettenberg, Stadt",7.87160798121956,51.210308006121,Mittelzentrum,30
"Werdohl, Stadt",7.76336706796427,51.2525219939844,Mittelzentrum,30
"Attendorn, Stadt",7.90770597314766,51.1216129963572,Mittelzentrum,30
"Lennestadt, Stadt",8.02040409555496,51.1451110081794,Mittelzentrum,30
"Olpe, Stadt",7.8457069102614,51.0290149977602,Mittelzentrum,30
"Bad Berleburg, Stadt",8.39179398549262,51.0450129989519,Mittelzentrum,30
"Kreuztal, Stadt",7.9880809020956,50.9617879999786,Mittelzentrum,30
"Bad Laasphe, Stadt",8.41169290214536,50.9275860013499,Mittelzentrum,30
Neunkirchen,8.00197299351322,50.7905620034705,Mittelzentrum,30
"Geseke, Stadt",8.50909189260634,51.6425090160168,Mittelzentrum,30
"Lippstadt, Stadt",8.36778607175915,51.6718979948564,Mittelzentrum,30
"Soest, Stadt",8.1103020296003,51.5705110142622,Mittelzentrum,30
"Warstein, Stadt",8.35492689469363,51.450026986731,Mittelzentrum,30
"Werl, Stadt",7.91454993983213,51.5541990057853,Mittelzentrum,30
"Bergkamen, Stadt",7.66053406469094,51.6195370095867,Mittelzentrum,30
"Kamen, Stadt",7.66236997454846,51.5879669673273,Mittelzentrum,30
"Lanen, Stadt",7.52633993775169,51.6093980060788,Mittelzentrum,30
"Schwerte, Stadt",7.57300304095993,51.4434279956754,Mittelzentrum,30
"Selm, Stadt",7.4689170083817,51.6959080097736,Mittelzentrum,30
"Unna, Stadt",7.69577905553775,51.5336270106849,Mittelzentrum,30
"Werne, Stadt",7.63471295324712,51.6697080335031,Mittelzentrum,30
"Bensheim, Stadt",8.61908897508204,49.6776119316685,Mittelzentrum,30
"Birstadt, Stadt",8.45519403922847,49.6404080014557,Mittelzentrum,30
"Heppenheim (Bergstrape), Kreisstadt",8.63936601650924,49.6427760184492,Mittelzentrum,30
"Lampertheim, Stadt",8.46731894879076,49.5939179603987,Mittelzentrum,30
"Lorsch, Karolingerstadt",8.56697600047686,49.6515539843155,Mittelzentrum,30
"Viernheim, Stadt",8.58289905926603,49.5382310576566,Mittelzentrum,30
"Dieburg, Stadt",8.84672395523646,49.8987620003499,Mittelzentrum,30
"Griesheim, Stadt",8.55499204117578,49.8591079700897,Mittelzentrum,30
"Groe-Umstadt, Stadt",8.93128302276413,49.8661119763824,Mittelzentrum,30
"Pfungstadt, Stadt",8.59608997433412,49.8031689849679,Mittelzentrum,30
"Weiterstadt, Stadt",8.59799001066716,49.8981130291142,Mittelzentrum,30
"Gros-Gerau, Stadt",8.48289308181021,49.9209100036599,Mittelzentrum,30
"Merfelden-Walldorf, Stadt",8.58029105526802,49.9893110169187,Mittelzentrum,30
Bad Homburg v. d. H,8.60724393876236,50.2318230251268,Mittelzentrum,30
"Friedrichsdorf, Stadt",8.6339379873322,50.2544669903715,Mittelzentrum,30
"Krnigstein im Taunus, Stadt",8.47429401655576,50.1810069750377,Mittelzentrum,30
"Kronberg im Taunus, Stadt",8.51169193427184,50.178908986564,Mittelzentrum,30
"Oberursel (Taunus), Stadt",8.58729101791656,50.1984100009003,Mittelzentrum,30
"Usingen, Stadt",8.53849108060835,50.3335110020556,Mittelzentrum,30
"Bad Orb, Stadt",9.34827195966442,50.2292100256956,Mittelzentrum,30
Bad Soden-Salm,9.3677720410018,50.277808985709,Mittelzentrum,30
"Bruchktbel, Stadt",8.92168202066717,50.1785089934421,Mittelzentrum,30
"Gelnhausen, Barbarossast., Krst.",9.19467603497083,50.2001080217787,Mittelzentrum,30
"Maintal, Stadt",8.82348505114015,50.149810991745,Mittelzentrum,30
"Schlechtern, Stadt",9.52366794855258,50.3522070029872,Mittelzentrum,30
"Wtchtersbach, Stadt",9.28657394632576,50.2560120105746,Mittelzentrum,30
"Bad Soden am Taunus, Stadt",8.50489190650572,50.1407090253722,Mittelzentrum,30
"Eschborn, Stadt",8.56479193658625,50.1436080281302,Mittelzentrum,30
"Flcrsheim am Main, Stadt",8.43239396844981,50.0151140308512,Mittelzentrum,30
"Hattersheim am Main, Stadt",8.48989191436264,50.0685080230007,Mittelzentrum,30
"Hochheim am Main, Stadt",8.35629702589049,50.0106119733619,Mittelzentrum,30
"Hofheim am Taunus, Kreisstadt",8.44419295187334,50.0831149648564,Mittelzentrum,30
"Kelkheim (Taunus), Stadt",8.45429293808913,50.1335109880534,Mittelzentrum,30
"Schwalbach am Taunus, Stadt",8.52989206906323,50.1538089795171,Mittelzentrum,30
"Erbach, Kreisstadt",8.99449695338338,49.6566280387345,Mittelzentrum,30
"Michelstadt, Stadt",9.0016810240325,49.6838110395665,Mittelzentrum,30
"Dietzenbach, Kreisstadt",8.77498602152771,50.0145070024177,Mittelzentrum,30
"Dreieich, Stadt",8.69458899812521,50.0191120061443,Mittelzentrum,30
"Heusenstamm, Stadt",8.8026859933406,50.0580140151093,Mittelzentrum,30
"Langen (Hessen), Stadt",8.67798900037138,49.9882129815239,Mittelzentrum,30
"Mahlheim am Main, Stadt",8.83188404985036,50.1237110296105,Mittelzentrum,30
"Neu-Isenburg, Stadt",8.6962580067124,50.0480880225407,Mittelzentrum,30
"Obertshausen, Stadt",8.85208500345126,50.0721129984812,Mittelzentrum,30
"Rodgau, Stadt",8.88975895040936,50.0123630075473,Mittelzentrum,30
"Rodermark, Stadt",8.82392903078386,49.9833150134338,Mittelzentrum,30
"Seligenstadt, Stadt",8.97018103521092,50.0428120118324,Mittelzentrum,30
"Bad Schwalbach, Kreisstadt",8.069602931968,50.1412120175223,Mittelzentrum,30
"Eltville am Rhein, Stadt",8.11470105786854,50.0229109989193,Mittelzentrum,30
"Geisenheim, Stadt",7.96270508596437,49.9840129709777,Mittelzentrum,30
"Idstein, Stadt",8.26589696796573,50.2242129881224,Mittelzentrum,30
"Redesheim am Rhein, Stadt",7.92636808199773,49.9785540081104,Mittelzentrum,30
"Taunusstein, Stadt",8.1507011006428,50.1399119672853,Mittelzentrum,30
"Bad Vilbel, Stadt",8.73898804044286,50.1852110103217,Mittelzentrum,30
"Badingen, Stadt",9.10597902951881,50.2841069901951,Mittelzentrum,30
"Butzbach, Friedrich-Ludwig-Weidig-Stadt",8.67217596349248,50.4303700039193,Mittelzentrum,30
"Nidda, Stadt",9.00868096601411,50.4175070152749,Mittelzentrum,30
"Grenberg, Stadt",8.95768197337219,50.5929110004042,Mittelzentrum,30
"Laubach, Stadt",8.98548099184752,50.5406109931044,Mittelzentrum,30
"Dillenburg, Stadt",8.28762902711701,50.7359770042408,Mittelzentrum,30
"Haiger, Stadt",8.20199991467601,50.7440069946919,Mittelzentrum,30
"Herborn, Stadt",8.30265906806705,50.6801909920622,Mittelzentrum,30
"Weilburg, Stadt",8.2629719758509,50.4823459995152,Mittelzentrum,30
"Biedenkopf, Stadt",8.52824406145367,50.9108700022907,Mittelzentrum,30
"Gladenbach, Stadt",8.58477509498631,50.7721140005751,Mittelzentrum,30
"Kirchhain, Stadt",8.92588299666055,50.8230129984233,Mittelzentrum,30
"Stadtallendorf, Stadt",9.01313003572576,50.8241839983027,Mittelzentrum,30
"Alsfeld, Stadt",9.26887394673625,50.7518120077144,Mittelzentrum,30
"Lauterbach (Hessen), Kreisstadt",9.3975720363406,50.6348079995739,Mittelzentrum,30
"Honfeld, Konrad-Zuse-Stadt",9.76016199731008,50.6656109839221,Mittelzentrum,30
"Bebra, Stadt",9.79636202690711,50.9713129968835,Mittelzentrum,30
"Heringen (Werra), Stadt",10.007664992969,50.8882519956767,Mittelzentrum,30
"Rotenburg a. d. Fulda, Stadt",9.72396402132339,50.9948119976304,Mittelzentrum,30
"Baunatal, Stadt",9.42047005508407,51.2596130049311,Mittelzentrum,30
"Hofgeismar, Stadt",9.38247103759792,51.4916080103311,Mittelzentrum,30
"Vellmar, Stadt",9.46893104776481,51.3629909993185,Mittelzentrum,30
"Wolfhagen, Stadt",9.17557594842096,51.3220139963421,Mittelzentrum,30
"Borken (Hessen), Stadt",9.2732740284997,51.0553089971136,Mittelzentrum,30
"Fritzlar, Dom- und Kaiserstadt",9.27907501926275,51.1334110008751,Mittelzentrum,30
"Homberg (Efze), Kreisstadt",9.40417102510265,51.0351100051386,Mittelzentrum,30
"Melsungen, Stadt",9.5495679730355,51.1296419980525,Mittelzentrum,30
"Schwalmstadt, Stadt",9.18818996788919,50.9151989977379,Mittelzentrum,30
"Bad Arolsen, Stadt",8.99966200730598,51.3816179908848,Mittelzentrum,30
"Bad Wildungen, Stadt",9.12732103077276,51.1201210033129,Mittelzentrum,30
"Frankenberg (Eder), Stadt",8.80173701614299,51.0498430063021,Mittelzentrum,30
"Korbach, Kreisstadt",8.88038295942004,51.2769090042975,Mittelzentrum,30
"Eschwege, Kreisstadt",10.0526560013589,51.1894069958678,Mittelzentrum,30
"Hessisch Lichtenau, Stadt",9.72256397693077,51.1983149994804,Mittelzentrum,30
"Sontra, Stadt",9.93495902283977,51.0679129994672,Mittelzentrum,30
"Witzenhausen, Stadt",9.85696000316758,51.3424070157451,Mittelzentrum,30
"Altenkirchen (Westerwald), Stadt",7.63983199055632,50.686366996957,Mittelzentrum,30
"Bad Kreuznach, Stadt",7.86300805693033,49.8428879717737,Mittelzentrum,30
"Andernach, Stadt",7.39534290147918,50.4405020148863,Mittelzentrum,30
"Mayen, Stadt",7.22593799412142,50.3251990231314,Mittelzentrum,30
"Linz am Rhein, Stadt",7.27927803414579,50.5653989894866,Mittelzentrum,30
"Boppard, Stadt",7.5903220537968,50.228732998522,Mittelzentrum,30
"Bad Ems, Stadt",7.71151196628235,50.3350220076693,Mittelzentrum,30
"Wittlich, Stadt",6.89282303976051,49.9852410233319,Mittelzentrum,30
"Prom, Stadt",6.42332589791672,50.2073780000722,Mittelzentrum,30
"Gerolstein, Stadt",6.66033707446836,50.2224429773709,Mittelzentrum,30
"Daun, Stadt",6.82959208514483,50.1994779680641,Mittelzentrum,30
"Hermeskeil, Stadt",6.94802004030168,49.6541789820118,Mittelzentrum,30
"Saarburg, Stadt",6.54864390546398,49.6083259276172,Mittelzentrum,30
"Frankenthal (Pfalz), Stadt",8.35659492723866,49.5356140423238,Mittelzentrum,30
"Pirmasens, Stadt",7.60377405122075,49.2052460625791,Mittelzentrum,30
"Alzey, Stadt",8.11833393789843,49.750599046567,Mittelzentrum,30
"Bad Dirkheim, Stadt",8.17830792080629,49.4636000625703,Mittelzentrum,30
"Gronstadt, Stadt",8.16425695235557,49.5625719857587,Mittelzentrum,30
"Germersheim, Stadt",8.37206400310178,49.2217450308256,Mittelzentrum,30
"Bad Bergzabern, Stadt",8.00168694122747,49.1026120296291,Mittelzentrum,30
"Bingen am Rhein, Stadt",7.89205290355701,49.9680630196688,Mittelzentrum,30
"Ingelheim am Rhein, Stadt",8.05539610631936,49.9741359758789,Mittelzentrum,30
"Dahn, Stadt",7.77868290302881,49.1507570375276,Mittelzentrum,30
"Herrenberg, Stadt",8.8676839959258,48.5967100372219,Mittelzentrum,30
"Leonberg, Stadt",9.01268101126833,48.7966120624408,Mittelzentrum,30
"Esslingen am Neckar, Stadt",9.30907500096841,48.7381100399125,Mittelzentrum,30
"Kirchheim unter Teck, Stadt",9.44807199652408,48.6466139475029,Mittelzentrum,30
"Nortingen, Stadt",9.33787404128862,48.6248131089479,Mittelzentrum,30
"Geislingen an der Steige, Stadt",9.83826298578978,48.6219099174351,Mittelzentrum,30
"Gippingen, Stadt",9.64866501629306,48.7049640432414,Mittelzentrum,30
"Vaihingen an der Enz, Stadt",8.95728001051965,48.9330860563151,Mittelzentrum,30
"Backnang, Stadt",9.43606500597696,48.945163981329,Mittelzentrum,30
"Schorndorf, Stadt",9.52557794923185,48.8050959362939,Mittelzentrum,30
"Neckarsulm, Stadt",9.22367599203161,49.190414047718,Mittelzentrum,30
"Krnzelsau, Stadt",9.69306602049428,49.2807119880689,Mittelzentrum,30
"Nhringen, Stadt",9.50307099734509,49.2024079425082,Mittelzentrum,30
"Crailsheim, Stadt",10.0727569874551,49.133011068681,Mittelzentrum,30
"Schwobisch Hall, Stadt",9.73216497362833,49.113612977387,Mittelzentrum,30
"Bad Mergentheim, Stadt",9.77300900088401,49.4876900310056,Mittelzentrum,30
"Tauberbischofsheim, Stadt",9.66807500438722,49.625088009053,Mittelzentrum,30
"Wertheim, Stadt",9.51446904930165,49.7620119573621,Mittelzentrum,30
"Heidenheim an der Brenz, Stadt",10.1504559938378,48.6786120499659,Mittelzentrum,30
"Ellwangen (Jagst), Stadt",10.1261560056537,48.9590070139839,Mittelzentrum,30
Schwcbisch Gm,9.80146399963887,48.7967109507772,Mittelzentrum,30
"Aalen, Stadt",10.0917439927924,48.8353499753021,Mittelzentrum,30
"Bretten, Stadt",8.71348899155071,49.035811979772,Mittelzentrum,30
"Bruchsal, Stadt",8.60045410190178,49.1229969795067,Mittelzentrum,30
"Ettlingen, Stadt",8.40929489747844,48.9434090466828,Mittelzentrum,30
"Bihl, Stadt",8.13486902802278,48.6938019946953,Mittelzentrum,30
"Rastatt, Stadt",8.21049909213739,48.8587070247164,Mittelzentrum,30
"Buchen (Odenwald), Stadt",9.32937400235576,49.520012031886,Mittelzentrum,30
"Mosbach, Stadt",9.15007799428155,49.3559070237336,Mittelzentrum,30
"Eberbach, Stadt",8.98828205058777,49.4630129484873,Mittelzentrum,30
"Schwetzingen, Stadt",8.57389194854082,49.3833119295137,Mittelzentrum,30
"Sinsheim, Stadt",8.87938399438318,49.2538149612773,Mittelzentrum,30
"Weinheim, Stadt",8.66453608385224,49.5508800329338,Mittelzentrum,30
"Nagold, Stadt",8.72388692924846,48.5508120802547,Mittelzentrum,30
"Bad Wildbad, Stadt",8.55489191656295,48.7491110338791,Mittelzentrum,30
"Calw, Stadt",8.74248801645346,48.7137149982139,Mittelzentrum,30
"Mahlacker, Stadt",8.83858496341681,48.9482119768184,Mittelzentrum,30
"Freudenstadt, Stadt",8.41049398115139,48.4638100874991,Mittelzentrum,30
"Horb am Neckar, Stadt",8.69398893485796,48.4476090275491,Mittelzentrum,30
"Breisach am Rhein, Stadt",7.57943999071958,48.0334130025054,Mittelzentrum,30
"Mellheim, Stadt",7.63971201729601,47.8105090275887,Mittelzentrum,30
"Titisee-Neustadt, Stadt",8.20790008370152,47.9190141088079,Mittelzentrum,30
"Emmendingen, Stadt",7.8481080058873,48.1219141144724,Mittelzentrum,30
"Waldkirch, Stadt",7.96010503556129,48.0943149711575,Mittelzentrum,30
"Achern, Stadt",8.07444002106263,48.6288450116822,Mittelzentrum,30
"Kehl, Stadt",7.81620806995547,48.5729140370862,Mittelzentrum,30
"Lahr/Schwarzwald, Stadt",7.84241598269045,48.3345408834788,Mittelzentrum,30
"Rottweil, Stadt",8.62908894598395,48.1630099832817,Mittelzentrum,30
"Schramberg, Stadt",8.42001403000886,48.22774490948,Mittelzentrum,30
"Donaueschingen, Stadt",8.49739405453236,47.9551121314273,Mittelzentrum,30
"Tuttlingen, Stadt",8.81988497824673,47.9831118642594,Mittelzentrum,30
"Radolfzell am Bodensee, Stadt",8.97168301829807,47.7386128790225,Mittelzentrum,30
"Singen (Hohentwiel), Stadt",8.83388597408529,47.7637099797654,Mittelzentrum,30
"Stockach, Stadt",9.01578203431255,47.8541111286073,Mittelzentrum,30
"Rheinfelden (Baden), Stadt",7.78520904272415,47.5597150908704,Mittelzentrum,30
"Schopfheim, Stadt",7.82269007606146,47.6501851306718,Mittelzentrum,30
"Bad Snckingen, Stadt",7.94693905178651,47.5568540925838,Mittelzentrum,30
"Waldshut-Tiengen, Stadt",8.22585208181087,47.6239849049666,Mittelzentrum,30
"Metzingen, Stadt",9.28228997057515,48.5379491256732,Mittelzentrum,30
"Mensingen, Stadt",9.50107003964538,48.4086069523293,Mittelzentrum,30
"Rottenburg am Neckar, Stadt",8.93893695334286,48.4742008903877,Mittelzentrum,30
"Balingen, Stadt",8.85988500115447,48.2754099221895,Mittelzentrum,30
"Hechingen, Stadt",8.96488203570842,48.3510128863875,Mittelzentrum,30
"Albstadt, Stadt",9.0198809690216,48.2531090928589,Mittelzentrum,30
"Ehingen (Donau), Stadt",9.72916597793146,48.2830091273872,Mittelzentrum,30
"Biberach an der RiS, Stadt",9.79266497673289,48.0965079568038,Mittelzentrum,30
"Laupheim, Stadt",9.88192097821546,48.2363550096848,Mittelzentrum,30
"Riedlingen, Stadt",9.47657095223939,48.1532099273415,Mittelzentrum,30
"Tberlingen, Stadt",9.15143396692735,47.7790721091655,Mittelzentrum,30
"Bad Waldsee, Stadt",9.75511398895553,47.9189340135612,Mittelzentrum,30
"Leutkirch im Allgtu, Stadt",10.0243590109806,47.8260119470736,Mittelzentrum,30
"Wangen im Allgnu, Stadt",9.83906399209674,47.6882130517506,Mittelzentrum,30
"Pfullendorf, Stadt",9.2556759659264,47.92291294862,Mittelzentrum,30
"Bad Saulgau, Stadt",9.51007101792702,48.0131109860396,Mittelzentrum,30
"Sigmaringen, Stadt",9.20827697516689,48.085708877302,Mittelzentrum,30
"Burghausen, Stadt",12.8298779536957,48.1685141184365,Mittelzentrum,30
"Bad Reichenhall, GKSt",12.8763089360873,47.7221639669491,Mittelzentrum,30
"Berchtesgaden, Markt",13.002896050782,47.6333578856991,Mittelzentrum,30
"Freilassing, Stadt",12.9822749494742,47.841243947881,Mittelzentrum,30
"Bad Telz, Stadt",11.5608100332047,47.7606090358848,Mittelzentrum,30
"Dachau, GKSt",11.4387269922667,48.2554129777105,Mittelzentrum,30
Eichst,11.1870170107419,48.8904840260691,Mittelzentrum,30
"Erding, Stadt",11.9082170022465,48.3054121237254,Mittelzentrum,30
"Moosburg a.d.Isar, Stadt",11.9347160357087,48.4669108792085,Mittelzentrum,30
"Fmrstenfeldbruck, GKSt",11.2505310215525,48.1750109195729,Mittelzentrum,30
"Murnau a.Staffelsee, Markt",11.2016330224127,47.6751140087502,Mittelzentrum,30
"Landsberg am Lech, GKSt",10.8780409902198,48.0477139329921,Mittelzentrum,30
"Mehldorf a.Inn, Stadt",12.5229220233637,48.246231031787,Mittelzentrum,30
"Waldkraiburg, Stadt",12.4106059809368,48.2005158909876,Mittelzentrum,30
"Neuburg a.d.Donau, GKSt",11.1764869845251,48.7345920464738,Mittelzentrum,30
"Schrobenhausen, Stadt",11.2643020133336,48.5631288599256,Mittelzentrum,30
"Pfaffenhofen a.d.Ilm, Stadt",11.5067650447913,48.5300751029024,Mittelzentrum,30
"Bad Aibling, Stadt",12.0016160391423,47.8596119511622,Mittelzentrum,30
"Wasserburg a.Inn, Stadt",12.2232640299818,48.0621529838344,Mittelzentrum,30
"Starnberg, Stadt",11.3435779867436,48.0019038780712,Mittelzentrum,30
"Penzberg, Stadt",11.3774509770344,47.7518620801032,Mittelzentrum,30
"Weilheim i.OB, Stadt",11.1455610144008,47.8399090987476,Mittelzentrum,30
"Freyung, Stadt",13.5475260296431,48.8080560524716,Mittelzentrum,30
"Grafenau, Stadt",13.3978320429941,48.8602139653542,Mittelzentrum,30
"Kelheim, Stadt",11.8810279719738,48.9192310202578,Mittelzentrum,30
"Mainburg, Stadt",11.7870709596405,48.641853067205,Mittelzentrum,30
"Vilsbiburg, Stadt",12.3533729640236,48.4498479863956,Mittelzentrum,30
"Vilshofen an der Donau, Stadt",13.184288027267,48.6341480203294,Mittelzentrum,30
"Viechtach, Stadt",12.8874940626225,49.0796129510827,Mittelzentrum,30
"Eggenfelden, Stadt",12.7625060956711,48.4035838691786,Mittelzentrum,30
"Pfarrkirchen, Stadt",12.9457639422783,48.4325939810521,Mittelzentrum,30
"Bogen, Stadt",12.6894050056995,48.9099620139283,Mittelzentrum,30
"Dingolfing, Stadt",12.4959039448247,48.6332170147313,Mittelzentrum,30
"Landau a.d.Isar, Stadt",12.6940000221037,48.6734160048153,Mittelzentrum,30
"Sulzbach-Rosenberg, Stadt",11.7457189768234,49.5033109532689,Mittelzentrum,30
"Cham, Stadt",12.6717990887314,49.2213129316075,Mittelzentrum,30
"Bad Kwtzting, Stadt",12.8551939026337,49.1750140481582,Mittelzentrum,30
"Parsberg, Stadt",11.7179199761279,49.1632119701816,Mittelzentrum,30
"Neutraubling, Stadt",12.1948390396929,48.9803889647817,Mittelzentrum,30
"Schwandorf, GKSt",12.1096489508303,49.3275109750398,Mittelzentrum,30
"Tirschenreuth, Stadt",12.3398050463923,49.8778149863547,Mittelzentrum,30
"Pegnitz, Stadt",11.5362630491698,49.7551159370813,Mittelzentrum,30
"Neustadt b.Coburg, GKSt",11.1220719875372,50.3268889992788,Mittelzentrum,30
"Forchheim, GKSt",11.0621339741808,49.7125130084624,Mittelzentrum,30
"Minchberg, Stadt",11.785735992262,50.1875839961789,Mittelzentrum,30
"Naila, Stadt",11.7126300468018,50.3292659965406,Mittelzentrum,30
"Kronach, Stadt",11.3291419842706,50.2411269902207,Mittelzentrum,30
"Lichtenfels, Stadt",11.0635220046447,50.1471900213879,Mittelzentrum,30
"Selb, GKSt",12.134321005762,50.1719589931886,Mittelzentrum,30
"Dinkelsbfhl, GKSt",10.3223519850601,49.071712060671,Mittelzentrum,30
"Rothenburg ob der Tauber, GKSt",10.1920710024861,49.3746219416413,Mittelzentrum,30
"Herzogenaurach, Stadt",10.8839029980566,49.5685649324812,Mittelzentrum,30
"Hersbruck, Stadt",11.4322919851493,49.5080150228988,Mittelzentrum,30
"Lauf a.d.Pegnitz, Stadt",11.2795370137643,49.5121379987338,Mittelzentrum,30
"Bad Windsheim, Stadt",10.4203700054727,49.5006979514444,Mittelzentrum,30
"Neustadt a.d.Aisch, Stadt",10.6103209898754,49.5796430036912,Mittelzentrum,30
"Roth, Stadt",11.0920519930987,49.2478870573309,Mittelzentrum,30
"Gunzenhausen, Stadt",10.7552599905095,49.1174389830699,Mittelzentrum,30
"Weiuenburg i.Bay., GKSt",10.9725709896606,49.0335040251976,Mittelzentrum,30
"Alzenau, Stadt",9.068079028186,50.0866089859061,Mittelzentrum,30
"Bad Brcckenau, Stadt",9.78656300386167,50.3081129694754,Mittelzentrum,30
"Bad Kissingen, GKSt",10.0770559914721,50.2004090270581,Mittelzentrum,30
"Hammelburg, Stadt",9.88946100152368,50.1152079925734,Mittelzentrum,30
"Bad Neustadt a.d.Saale, Stadt",10.2111020136894,50.3208389724311,Mittelzentrum,30
"Hadfurt, Stadt",10.5122989951316,50.0335199988346,Mittelzentrum,30
"Kitzingen, GKSt",10.1557550103863,49.7372129473211,Mittelzentrum,30
"Miltenberg, Stadt",9.25549105269849,49.700664934706,Mittelzentrum,30
"Karlstadt, Stadt",9.76531998286627,49.9602169683038,Mittelzentrum,30
"Lohr a.Main, Stadt",9.57656794577133,49.9949070189265,Mittelzentrum,30
"Marktheidenfeld, Stadt",9.60086700883589,49.8472100329142,Mittelzentrum,30
"Gerolzhofen, Stadt",10.350203995182,49.900269009718,Mittelzentrum,30
"Ochsenfurt, Stadt",10.0678360001605,49.6632040328548,Mittelzentrum,30
"Aichach, Stadt",11.1340130011192,48.4612658865659,Mittelzentrum,30
"Friedberg, Stadt",10.9854380209041,48.3557131368575,Mittelzentrum,30
"Schwabmenchen, Stadt",10.7567310003995,48.1851119562193,Mittelzentrum,30
"Krumbach (Schwaben), Stadt",10.3654520045638,48.2423130597682,Mittelzentrum,30
"Illertissen, Stadt",10.1058390078408,48.223633066769,Mittelzentrum,30
"Lindau (Bodensee), GKSt",9.70473398482472,47.5538830090929,Mittelzentrum,30
"Lindenberg i.Allg,u, Stadt",9.88390097288282,47.5999950993546,Mittelzentrum,30
"Frssen, Stadt",10.6969859975139,47.5677219090067,Mittelzentrum,30
"Marktoberdorf, Stadt",10.6192949971555,47.7793008887899,Mittelzentrum,30
"Bad Whrishofen, Stadt",10.5935470000389,48.0021129863605,Mittelzentrum,30
"Mindelheim, Stadt",10.4916630057751,48.0490528948661,Mittelzentrum,30
"Donauwgrth, GKSt",10.7789829885993,48.7232590023376,Mittelzentrum,30
"Nirdlingen, GKSt",10.4899930022333,48.8509449977713,Mittelzentrum,30
"Oberstdorf, Markt",10.2741789920597,47.4108770196488,Mittelzentrum,30
"Vulklingen, Stadt",6.86392995925173,49.251308027898,Mittelzentrum,30
"Merzig, Kreisstadt",6.6341707976716,49.4411849539751,Mittelzentrum,30
"Wadern, Stadt",6.89577994353646,49.5367319465684,Mittelzentrum,30
"Neunkirchen, Kreisstadt",7.17531893021077,49.3484919282272,Mittelzentrum,30
"Dillingen/ Saar, Stadt",6.73111595506014,49.3506550184184,Mittelzentrum,30
"Lebach, Stadt",6.91542889880055,49.4104080202955,Mittelzentrum,30
"Saarlouis, Kreisstadt",6.75823301230738,49.3195110445774,Mittelzentrum,30
"Blieskastel, Stadt",7.26021998817342,49.2412109755805,Mittelzentrum,30
"Homburg, Kreisstadt",7.3315200581435,49.324509041399,Mittelzentrum,30
"St. Ingbert, Stadt",7.11632390256961,49.2875140541528,Mittelzentrum,30
"St. Wendel, Kreisstadt",7.16959710593607,49.4678799588512,Mittelzentrum,30
"Bernau bei Berlin, Stadt",13.5873180996661,52.6792540235815,Mittelzentrum,30
"Eberswalde, Stadt",13.8209430335752,52.834013013155,Mittelzentrum,30
"Kanigs Wusterhausen, Stadt",13.6293300009668,52.2965580018943,Mittelzentrum,30
"Libben (Spreewald), Stadt",13.8969659075395,51.9414689849409,Mittelzentrum,30
"Finsterwalde, Stadt",13.7083149454869,51.6315960343023,Mittelzentrum,30
"Herzberg (Elster), Stadt",13.2352070084211,51.6923809827257,Mittelzentrum,30
"Falkensee, Stadt",13.0913870019737,52.5602770582574,Mittelzentrum,30
"Nauen, Stadt",12.8770920361853,52.6068270524261,Mittelzentrum,30
"Rathenow, Stadt",12.3488700205491,52.6040710022349,Mittelzentrum,30
"Bad Freienwalde (Oder), Stadt",14.0291869871156,52.7878229460786,Mittelzentrum,30
Neuenhagen bei Berlin,13.7030309347381,52.5216540555382,Mittelzentrum,30
"Seelow, Stadt",14.3840341193691,52.5327509404999,Mittelzentrum,30
"Strausberg, Stadt",13.8806260846739,52.5806850326579,Mittelzentrum,30
"Hennigsdorf, Stadt",13.2050520422603,52.6382799959055,Mittelzentrum,30
"Oranienburg, Stadt",13.2370350560884,52.7542700192931,Mittelzentrum,30
"Libbenau/Spreewald, Stadt",13.9531409132976,51.8634070012322,Mittelzentrum,30
"Beeskow, Stadt",14.2468900936537,52.1724780522982,Mittelzentrum,30
"Eisenhottenstadt, Stadt",14.6293839532838,52.1461649874455,Mittelzentrum,30
"Erkner, Stadt",13.7521330143107,52.423718999402,Mittelzentrum,30
"Frrstenwalde/Spree, Stadt",14.0614189354687,52.3604810206114,Mittelzentrum,30
"Kyritz, Stadt",12.3976239569662,52.9425480011692,Mittelzentrum,30
"Neuruppin, Stadt",12.8046919825643,52.9244079722824,Mittelzentrum,30
"Bad Belzig, Stadt",12.5872509925394,52.1398399824817,Mittelzentrum,30
"Teltow, Stadt",13.2685559772678,52.4006270415709,Mittelzentrum,30
"Forst (Lausitz), Stadt",14.6452798658338,51.7445819834014,Mittelzentrum,30
"Guben, Stadt",14.7166169620039,51.951266031112,Mittelzentrum,30
"Spremberg, Stadt",14.3795399729592,51.5717399706786,Mittelzentrum,30
"Jhterbog, Stadt",13.0803320500949,51.9914140144365,Mittelzentrum,30
"Luckenwalde, Stadt",13.1734010563017,52.0890399949234,Mittelzentrum,30
"Ludwigsfelde, Stadt",13.2609669734044,52.3018020694768,Mittelzentrum,30
"Zossen, Stadt",13.4494660128258,52.2156250662376,Mittelzentrum,30
"Prenzlau, Stadt",13.8620890351133,53.310156944446,Mittelzentrum,30
"Schwedt/Oder, Stadt",14.2854050573718,53.0576949841633,Mittelzentrum,30
"Templin, Stadt",13.5017690936057,53.119429032433,Mittelzentrum,30
"Demmin, Hansestadt",13.0413519829789,53.904526070325,Mittelzentrum,30
"Neustrelitz, Stadt",13.0677199528557,53.3640329496883,Mittelzentrum,30
"Waren (Msritz), Stadt",12.6790990824778,53.5204659245958,Mittelzentrum,30
"Bad Doberan, Stadt",11.9033929702244,54.1014900103785,Mittelzentrum,30
"Grstrow, Stadt",12.1834669839818,53.7939909436363,Mittelzentrum,30
"Teterow, Stadt",12.5738920694477,53.7682148719068,Mittelzentrum,30
Bergen auf R,13.4290670008725,54.4194149979968,Mittelzentrum,30
"Grimmen, Stadt",13.0484649606989,54.1101150966485,Mittelzentrum,30
"Ribnitz-Damgarten, Stadt",12.4361100503333,54.2429920447269,Mittelzentrum,30
Grevesm,11.1843479911575,53.8669279132687,Mittelzentrum,30
"Wismar, Hansestadt",11.4565079877734,53.8904339613162,Mittelzentrum,30
"Anklam, Stadt",13.6932741105179,53.8533710142806,Mittelzentrum,30
"Pasewalk, Stadt",13.9964889926212,53.5033380495452,Mittelzentrum,30
"Ueckermznde, Stadt",14.0418509840775,53.7368240423179,Mittelzentrum,30
"Wolgast, Stadt",13.7751829016577,54.0509489035281,Mittelzentrum,30
"Hagenow, Stadt",11.1987230245725,53.4279211168396,Mittelzentrum,30
"Ludwigslust, Stadt",11.5008020158715,53.3179049925828,Mittelzentrum,30
"Parchim, Stadt",11.8552040074799,53.4274638615583,Mittelzentrum,30
"Annaberg-Buchholz, Stadt",13.0130639008602,50.590499995125,Mittelzentrum,30
"Marienberg, Stadt",13.1631740742329,50.6501080090689,Mittelzentrum,30
"Stollberg/Erzgeb., Stadt",12.7720009659336,50.7055049967551,Mittelzentrum,30
"Dlbeln, Stadt",13.1267830415937,51.1247139942628,Mittelzentrum,30
"Freiberg, Stadt",13.338724904674,50.9141879968536,Mittelzentrum,30
"Mittweida, Stadt",12.9802300435207,50.9826159996754,Mittelzentrum,30
"Oelsnitz/Vogtl., Stadt",12.1709570503822,50.4143980057593,Mittelzentrum,30
"Reichenbach im Vogtland, Stadt",12.3019310091127,50.6186899923675,Mittelzentrum,30
"Crimmitschau, Stadt",12.3858430081616,50.8191260026627,Mittelzentrum,30
"Glauchau, Stadt",12.5364029958826,50.8299139992975,Mittelzentrum,30
"Limbach-Oberfrohna, Stadt",12.7670230915219,50.8588180106533,Mittelzentrum,30
"Werdau, Stadt",12.3727030664107,50.7390169931337,Mittelzentrum,30
"Kamenz, Stadt",14.1024129324003,51.2754480159077,Mittelzentrum,30
"Radeberg, Stadt",13.9185649514039,51.1156499957672,Mittelzentrum,30
"Lebau, Stadt",14.6645409753743,51.0937420006398,Mittelzentrum,30
"Niesky, Stadt",14.8225361792112,51.2901340019949,Mittelzentrum,30
"Weidwasser/O.L., Stadt",14.6362611293535,51.4976619948692,Mittelzentrum,30
"Zittau, Stadt",14.8095668862961,50.8969610094442,Mittelzentrum,30
"Coswig, Stadt",13.5803200466099,51.1300049976465,Mittelzentrum,30
"Grodenhain, Stadt",13.5357870542792,51.2924650016826,Mittelzentrum,30
"Meimen, Stadt",13.4753759860108,51.162917994167,Mittelzentrum,30
"Radebeul, Stadt",13.6557698976869,51.1057890103273,Mittelzentrum,30
"Riesa, Stadt",13.2974010570158,51.3052290122089,Mittelzentrum,30
"Dippoldiswalde, Stadt",13.6649719769726,50.8888129985089,Mittelzentrum,30
"Freital, Stadt",13.6362719490168,50.9845160023637,Mittelzentrum,30
"Pirna, Stadt",13.9401579148102,50.9578739987457,Mittelzentrum,30
"Borna, Stadt",12.5030690794694,51.1273879995906,Mittelzentrum,30
"Grimma, Stadt",12.7298929359379,51.239108993441,Mittelzentrum,30
"Markkleeberg, Stadt",12.3701009863331,51.2778090066535,Mittelzentrum,30
"Wurzen, Stadt",12.7408919766663,51.3711130019613,Mittelzentrum,30
"Delitzsch, Stadt",12.3368019581132,51.5257110179664,Mittelzentrum,30
"Eilenburg, Stadt",12.6097190884827,51.4590070121099,Mittelzentrum,30
"Oschatz, Stadt",13.1082450001921,51.3002010071909,Mittelzentrum,30
"Schkeuditz, Stadt",12.2212040556386,51.3914109965598,Mittelzentrum,30
"Torgau, Stadt",12.9916980411783,51.5565259815811,Mittelzentrum,30
"Salzwedel, Hansestadt",11.1621140084566,52.8510549507255,Mittelzentrum,30
"Bitterfeld-Wolfen, Stadt",12.3265260171174,51.626881000972,Mittelzentrum,30
"Kithen (Anhalt), Stadt",11.9915090425714,51.7539140007164,Mittelzentrum,30
"Zerbst/Anhalt, Stadt",12.085422992682,51.9649280014454,Mittelzentrum,30
"Haldensleben, Stadt",11.4061229917293,52.2910120535754,Mittelzentrum,30
"Oschersleben (Bode), Stadt",11.235922013232,52.0316160046595,Mittelzentrum,30
"Naumburg (Saale), Stadt",11.8034790525377,51.1500699915672,Mittelzentrum,30
"Weicenfels, Stadt",11.96635099194,51.1981960077869,Mittelzentrum,30
"Zeitz, Stadt",12.1274730165155,51.0498469950622,Mittelzentrum,30
"Quedlinburg, Stadt",11.1694980136348,51.7350033658314,Mittelzentrum,30
"Wernigerode, Stadt",10.7943910023626,51.8381960190805,Mittelzentrum,30
"Burg, Stadt",11.858637986061,52.2727579911356,Mittelzentrum,30
"Eisleben, Lutherstadt",11.5465179661945,51.5323599970413,Mittelzentrum,30
"Sangerhausen, Stadt",11.2937699889234,51.4717859890017,Mittelzentrum,30
"Merseburg, Stadt",11.9840289495891,51.3467370139092,Mittelzentrum,30
"Aschersleben, Stadt",11.4500170004446,51.7598650270417,Mittelzentrum,30
"Bernburg (Saale), Stadt",11.7507150386867,51.7985119990891,Mittelzentrum,30
"Schtnebeck (Elbe), Stadt",11.7283640569806,52.007526032281,Mittelzentrum,30
"Stalfurt, Stadt",11.5840179912098,51.85100899935,Mittelzentrum,30
"Wittenberg, Lutherstadt",12.6517879116038,51.8599850137436,Mittelzentrum,30
"Heilbad Heiligenstadt, Stadt",10.1322269990509,51.3753319838049,Mittelzentrum,30
"Leinefelde-Worbis, Stadt",10.3246489964986,51.3919869997116,Mittelzentrum,30
"Bad Salzungen, Stadt",10.2317840111959,50.8090589977836,Mittelzentrum,30
"Bad Langensalza, Stadt",10.6460259959042,51.1050069959473,Mittelzentrum,30
"Artern/Unstrut, Stadt",11.2887709905812,51.3656769912834,Mittelzentrum,30
"Sondershausen, Stadt",10.8609360063993,51.3722110091253,Mittelzentrum,30
"Meiningen, Stadt",10.4202520021342,50.5709650082236,Mittelzentrum,30
"Schmalkalden, Kurort, Stadt",10.4533919992949,50.7251969956779,Mittelzentrum,30
"Scmmerda, Stadt",11.1215109771673,51.1602669927667,Mittelzentrum,30
"Hildburghausen, Stadt",10.7329699967295,50.424895993612,Mittelzentrum,30
"Arnstadt, Stadt",10.9475320044037,50.8385050074506,Mittelzentrum,30
"Ilmenau, Stadt",10.920501000419,50.6842039912257,Mittelzentrum,30
"Apolda, Stadt",11.5173919476223,51.0254750005594,Mittelzentrum,30
"Sonneberg, Stadt",11.1754039771123,50.3577459949943,Mittelzentrum,30
"Eisenberg, Stadt",11.9012329826464,50.9674839991753,Mittelzentrum,30
"Stadtroda, Stadt",11.7275219915937,50.858077999243,Mittelzentrum,30
"Bad Lobenstein, Stadt",11.6440139692305,50.4513090165098,Mittelzentrum,30
"Plrneck, Stadt",11.5919609826418,50.6952590113384,Mittelzentrum,30
"Schleiz, Stadt",11.8080049782407,50.576561008862,Mittelzentrum,30
"Greiz, Stadt",12.1972970422242,50.654644011445,Mittelzentrum,30
"Zeulenroda-Triebes, Stadt",11.9802780488091,50.6493180102701,Mittelzentrum,30
"Bad Harzburg, Stadt",10.5614639978336,51.8863300319686,Mittelzentrum,21
"Clausthal-Zellerfeld, Bergstadt",10.3359490035614,51.8045119770844,Mittelzentrum,21
"Goslar, Stadt",10.4256350012806,51.9117009940006,Mittelzentrum,21
"Seesen, Stadt",10.1803520046677,51.8925129789128,Mittelzentrum,21
"Bad Nauheim, Stadt",8.74903895878932,50.3630450293988,Mittelzentrum,21
"Friedberg (Hessen), Kreisstadt",8.75129904344976,50.3308869961801,Mittelzentrum,21
"Diez, Stadt",8.00352404283945,50.3708989671239,Mittelzentrum,21
"Landau in der Pfalz, Stadt",8.12080802513927,49.1955680171971,Mittelzentrum,21
"Zweibr cken, Stadt",7.36481598303443,49.2452429322081,Mittelzentrum,21
"Suhl, Stadt",10.6873870026781,50.6108400157036,Mittelzentrum,21
"Zella-Mehlis, Stadt",10.6737050043085,50.6550940056851,Mittelzentrum,21
"Bad Blankenburg, Stadt",11.2736249930609,50.6831820105137,Mittelzentrum,21
"Saalfeld/Saale, Stadt",11.3637000023889,50.6490520056968,Mittelzentrum,21
"Rudolstadt, Stadt",11.3428916930631,50.7214659638596,Mittelzentrum,21
"Langenhagen, Stadt",9.73466199058276,52.4388120532024,Mittelzentrum,20
"Hameln, Stadt",9.35457197302998,52.1081120135708,Mittelzentrum,20
"Delmenhorst, Stadt",8.63798900448668,53.0512120324807,Mittelzentrum,20
"Emden, Stadt",7.205423900097,53.3646160372515,Mittelzentrum,20
"Lingen (Ems), Stadt",7.32720003531661,52.5218930232802,Mittelzentrum,20
"Nordhorn, Stadt",7.06242798989897,52.4327129877308,Mittelzentrum,20
"Risselsheim, Stadt",8.42310996595647,49.9890860205698,Mittelzentrum,20
"Limburg a.d. Lahn, Kreisstadt",8.05975405051572,50.3857230129853,Mittelzentrum,20
"Bad Hersfeld, Kreisstadt",9.7145639945137,50.866107997502,Mittelzentrum,20
"Speyer, Stadt",8.43431405656296,49.3179890328751,Mittelzentrum,20
"Worms, Stadt",8.34789603078441,49.6317100262458,Mittelzentrum,20
"Baden-Baden, Stadt",8.23519798731675,48.7671169363918,Mittelzentrum,20
"Halberstadt, Stadt",11.0596059965324,51.89698000952,Mittelzentrum,20
"Stendal, Hansestadt",11.8654730119138,52.5977630316715,Mittelzentrum,20
"Weimar, Stadt",11.3193250015499,50.979411999286,Mittelzentrum,20
"Eisenach, Stadt",10.3143549934394,50.9807009961216,Mittelzentrum,20
"Nordhausen, Stadt",10.7898460121688,51.4988060133878,Mittelzentrum,20
Mihlhausen/Th,10.4647140005913,51.2064319958431,Mittelzentrum,20
"Gotha, Stadt",10.7172270037899,50.9419979956834,Mittelzentrum,20
"Altenburg, Stadt",12.443002993282,50.9922829999722,Mittelzentrum,20
"Braunschweig, Stadt",10.5363429941566,52.2765120210025,Oberzentrum,11
"Salzgitter, Stadt",10.3265489948305,52.1617129898238,Oberzentrum,11
"Wolfsburg, Stadt",10.7980380021565,52.4282069732909,Oberzentrum,11
"Gienen, Universit,tsstadt",8.6805890210983,50.5836109964164,Oberzentrum,11
"Wetzlar, Stadt",8.5020819095772,50.5632169891843,Oberzentrum,11
"Mannheim, Universit",8.45809403918418,49.4838099775091,Oberzentrum,11
"Larrach, Stadt",7.66170589644361,47.6100850678418,Oberzentrum,11
"Weil am Rhein, Stadt",7.61135704600771,47.5946809082817,Oberzentrum,11
"Reutlingen, Stadt",9.20654594871124,48.4965780213061,Oberzentrum,11
"Tobingen, Universitrtsstadt",9.05977995404698,48.5223119312032,Oberzentrum,11
"Ulm, Universitttsstadt",9.98496000313877,48.3996089306656,Oberzentrum,11
"Friedrichshafen, Stadt",9.487222019777,47.6543851018807,Oberzentrum,11
"Ravensburg, Stadt",9.61270103124987,47.7867130146096,Oberzentrum,11
"Weingarten, Stadt",9.63865897990201,47.8127439109673,Oberzentrum,11
"Deggendorf, GKSt",12.9626859130971,48.8329999447412,Oberzentrum,11
"Plattling, Stadt",12.8716959817738,48.7798120424778,Oberzentrum,11
"Marktredwitz, GKSt",12.0903080450986,50.0060459802323,Oberzentrum,11
"Wunsiedel, Stadt",12.007112953492,50.0383110030056,Oberzentrum,11
Erlangen,11.0042349781079,49.5881080606817,Oberzentrum,11
Frrth,10.9674360028801,49.4830090536436,Oberzentrum,11
Nrrnberg,11.075934013147,49.4467120463705,Oberzentrum,11
Schwabach,11.025414984736,49.3287160488859,Oberzentrum,11
"Neu-Ulm, GKSt",10.0017589752892,48.3925129515494,Oberzentrum,11
"Stralsund, Hansestadt",13.0891659359731,54.306006959565,Oberzentrum,11
"Greifswald, Hansestadt",13.3884281075171,54.0926400603189,Oberzentrum,11
"Bautzen, Stadt",14.4227800407067,51.1793860009822,Oberzentrum,11
"Hoyerswerda, Stadt",14.2479901051061,51.4385069837713,Oberzentrum,11
"Garlitz, Stadt",14.979735154018,51.1458049932624,Oberzentrum,11
"Flensburg, Stadt",9.43427198343134,54.779159994714,Oberzentrum,10
"Kiel, Landeshauptstadt",10.1294509847015,54.3199121039325,Oberzentrum,10
"Libeck, Hansestadt",10.6725379999123,53.8690111172397,Oberzentrum,10
"Neumcnster, Stadt",9.98475499607915,54.0752141358071,Oberzentrum,10
"Hamburg, Freie und Hansestadt",10.0064540057298,53.5533140367979,Oberzentrum,10
"Glttingen, Stadt",9.92755898436384,51.533409005446,Oberzentrum,10
"Hannover, Landeshauptstadt",9.72916298032464,52.3745080180897,Oberzentrum,10
"Hildesheim, Stadt",9.95360897250126,52.1501879991765,Oberzentrum,10
"Celle, Stadt",10.0800539996938,52.6233139510979,Oberzentrum,10
"Lineburg, Hansestadt",10.4042449935389,53.2523159861555,Oberzentrum,10
"Oldenburg (Oldenburg), Stadt",8.21459896705657,53.1452100016657,Oberzentrum,10
"Osnabruck, Stadt",8.05587397923112,52.2767300200423,Oberzentrum,10
"Wilhelmshaven, Stadt",8.12570204616611,53.5276110895429,Oberzentrum,10
"Bremen, Stadt",8.81168504005546,53.0720139365163,Oberzentrum,10
"Bremerhaven, Stadt",8.59079003004173,53.5404088764456,Oberzentrum,10
"Drsseldorf, Stadt",6.78193289830682,51.2313119887877,Oberzentrum,10
"Duisburg, Stadt",6.76643293493506,51.4314119831423,Oberzentrum,10
"Essen, Stadt",7.01302791124947,51.4520110036042,Oberzentrum,10
"Krefeld, Stadt",6.56523806793198,51.334110004676,Oberzentrum,10
"Mrnchengladbach, Stadt",6.43284111793038,51.1903080058663,Oberzentrum,10
"Wuppertal, Stadt",7.15172410905013,51.2567140011067,Oberzentrum,10
"Bonn, Stadt",7.09672490847826,50.7374080055932,Oberzentrum,10
"Koln, Stadt",6.93952903098433,50.9370120041567,Oberzentrum,10
"Aachen, Stadt",6.09565662883778,50.7788762774834,Oberzentrum,10
"Menster, Stadt",7.63061305121854,51.9649119852052,Oberzentrum,10
"Bielefeld, Stadt",8.5254971008163,52.0168840063888,Oberzentrum,10
"Paderborn, Stadt",8.74619201530505,51.7156870235642,Oberzentrum,10
"Bochum, Stadt",7.22172307912518,51.4789120191173,Oberzentrum,10
"Dortmund, Stadt",7.45591700555125,51.5144079880615,Oberzentrum,10
"Hagen, Stadt",7.47781607895239,51.3620069894367,Oberzentrum,10
"Siegen, Stadt",8.01624108487836,50.8705020058606,Oberzentrum,10
"Darmstadt, Wissenschaftsstadt",8.64499010667871,49.872008980005,Oberzentrum,10
"Frankfurt am Main, Stadt",8.68868800139313,50.1099129696116,Oberzentrum,10
"Offenbach am Main, Stadt",8.76718695477043,50.1006129840968,Oberzentrum,10
"Wiesbaden, Landeshauptstadt",8.23839997871448,50.0715100047783,Oberzentrum,10
"Hanau, Brcder-Grimm-Stadt",8.91295704578691,50.1234630088821,Oberzentrum,10
"Marburg, Universitftsstadt",8.76773696718702,50.8059960082745,Oberzentrum,10
"Kassel, documenta-Stadt",9.50306897418079,51.3215139961522,Oberzentrum,10
"Fulda, Stadt",9.67776502307494,50.547809994712,Oberzentrum,10
"Koblenz, Stadt",7.58642790058208,50.3607900030181,Oberzentrum,10
"Trier, Stadt",6.64263499373605,49.7606090236341,Oberzentrum,10
"Kaiserslautern, Stadt",7.76850907479657,49.4454119396769,Oberzentrum,10
"Ludwigshafen am Rhein, Stadt",8.44389400724606,49.4786110177706,Oberzentrum,10
"Mainz, Stadt",8.26199800115901,50.000117966374,Oberzentrum,10
"Stuttgart, Landeshauptstadt",9.1843770210461,48.7822149734966,Oberzentrum,10
"Heilbronn, Stadt",9.21217599894978,49.1405140006696,Oberzentrum,10
"Karlsruhe, Stadt",8.40439497910917,49.0056080527551,Oberzentrum,10
"Heidelberg, Stadt",8.68508792488945,49.4050140108112,Oberzentrum,10
"Pforzheim, Stadt",8.7048279186246,48.8933829961905,Oberzentrum,10
"Freiburg im Breisgau, Stadt",7.83970705103768,47.9921111137,Oberzentrum,10
"Offenburg, Stadt",7.93830599649565,48.4687079491267,Oberzentrum,10
"Villingen-Schwenningen, Stadt",8.4656929947024,48.0683140077879,Oberzentrum,10
"Konstanz, Universitetsstadt",9.178584954095,47.6687930609903,Oberzentrum,10
Ingolstadt,11.436027010276,48.7684100352493,Oberzentrum,10
"Mnnchen, Landeshauptstadt",11.5679239716887,48.1402130391672,Oberzentrum,10
Rosenheim,12.1341129602601,47.8505171022975,Oberzentrum,10
"Freising, GKSt",11.7423070111785,48.400738106455,Oberzentrum,10
"Garmisch-Partenkirchen, Markt",11.1022829895191,47.4957281282579,Oberzentrum,10
"Traunstein, GKSt",12.6495729847604,47.8702350135435,Oberzentrum,10
Landshut,12.1468430411903,48.5443760430284,Oberzentrum,10
Passau,13.4595810335666,48.5711170331671,Oberzentrum,10
Straubing,12.5706009025733,48.8798180569642,Oberzentrum,10
Amberg,11.8580170159152,49.4429129983982,Oberzentrum,10
Regensburg,12.0984130198479,49.0213130432667,Oberzentrum,10
Weiden i.d.OPf.,12.159610032368,49.6790119646327,Oberzentrum,10
"Neumarkt i.d.OPf., GKSt",11.4606259611245,49.2770079750042,Oberzentrum,10
Bamberg,10.896838002647,49.8960109793141,Oberzentrum,10
Bayreuth,11.5836219519258,49.9476090222565,Oberzentrum,10
Coburg,10.9683349759009,50.2631070190116,Oberzentrum,10
Hof,11.9045140058794,50.3176119758954,Oberzentrum,10
"Kulmbach, GKSt",11.4535249818027,50.1075129987919,Oberzentrum,10
Ansbach,10.5772149966546,49.304519937466,Oberzentrum,10
Aschaffenburg,9.14821298858699,49.9766010037638,Oberzentrum,10
Schweinfurt,10.2355530045395,50.0496100063506,Oberzentrum,10
Wcrzburg,9.94458202461746,49.7986069393453,Oberzentrum,10
Augsburg,10.89764000066,48.3594088791959,Oberzentrum,10
Kaufbeuren,10.6244919947406,47.8812071092856,Oberzentrum,10
Kempten (AllgLu),10.3233920019285,47.7260441229681,Oberzentrum,10
Memmingen,10.1787560067856,47.9837149296387,Oberzentrum,10
"Saarbr cken, Landeshauptstadt",6.99862701946915,49.2401079611398,Oberzentrum,10
"Berlin, Stadt",13.3849740620796,52.5097120186212,Oberzentrum,10
"Brandenburg an der Havel, Stadt",12.54991305789,52.4115709836818,Oberzentrum,10
"Cottbus, Stadt",14.3334109251308,51.7572910027331,Oberzentrum,10
"Frankfurt (Oder), Stadt",14.5508339134368,52.3417980274051,Oberzentrum,10
"Potsdam, Stadt",13.0600950141451,52.3945449626557,Oberzentrum,10
"Rostock, Hansestadt",12.127156054359,54.0853959508862,Oberzentrum,10
"Schwerin, Landeshauptstadt",11.4002160001099,53.6353340227725,Oberzentrum,10
"Neubrandenburg, Stadt",13.2671310724574,53.5571139164872,Oberzentrum,10
"Chemnitz, Stadt",12.918188949047,50.8268129925626,Oberzentrum,10
"Plauen, Stadt",12.1274080423505,50.491409008551,Oberzentrum,10
"Zwickau, Stadt",12.4902989039256,50.7183070020861,Oberzentrum,10
"Dresden, Stadt",13.7392689224426,51.0474130026434,Oberzentrum,10
"Leipzig, Stadt",12.3777009794747,51.343014015034,Oberzentrum,10
"Dessau-Ronlau, Stadt",12.2429970495669,51.8290629646943,Oberzentrum,10
"Halle (Saale), Stadt",11.9827879807122,51.4786680152352,Oberzentrum,10
"Magdeburg, Landeshauptstadt",11.6337170255516,52.1294139749168,Oberzentrum,10
"Erfurt, Stadt",11.0428640151949,50.9717749998595,Oberzentrum,10
"Gera, Stadt",12.0797089488293,50.8725130007419,Oberzentrum,10
"Jena, Stadt",11.5880740324845,50.9303440009714,Oberzentrum,10
