lon,lat,center,name
7.73001007578242,47.8801119755924,Mittelzentrum,"Staufen im Breisgau, Stadt"
8.37230481100908,49.3809677994483,Mittelzentrum,"Schifferstadt, Stadt"
10.2559070011942,53.4912959780176,Mittelzentrum,Wentorf bei Hamburg
10.3064469993566,53.9362109471905,Mittelzentrum,"Bad Segeberg, Stadt"
10.2140489993885,53.9527169144726,Mittelzentrum,"Wahlstedt, Stadt"
10.2137399958038,53.5427690934843,Mittelzentrum,"Glinde, Stadt"
10.2517550132677,53.5100259689712,Mittelzentrum,"Reinbek, Stadt"
12.3530880487051,50.901481998779,Mittelzentrum,"Schmelln, Stadt"
12.4316750179606,50.8876759995825,Mittelzentrum,"Gltnitz, Stadt"
11.8585929934538,50.8941840003585,Mittelzentrum,"Hermsdorf, Stadt"
11.8669240323569,50.9161989961183,Mittelzentrum,Bad Klosterlausnitz
11.1386129863368,50.5099069852588,Mittelzentrum,"Neuhaus am Rennweg, Stadt"
11.1656130213169,50.48570998601,Mittelzentrum,"Lauscha, Stadt"
8.90230101641554,50.4766580098994,Mittelzentrum,"Hungen, Stadt"
8.81405303941059,50.5208659944388,Mittelzentrum,"Lich, Stadt"
8.66988796440883,51.0274089970727,Mittelzentrum,Allendorf (Eder)
8.65228799695038,51.0101089947352,Mittelzentrum,"Battenberg (Eder), Stadt"
6.93013706285718,50.3822720021762,Mittelzentrum,"Adenau, Stadt"
7.09622501917837,50.5416150100928,Mittelzentrum,"Bad Neuenahr-Ahrweiler, Stadt"
7.22396091427053,50.5776020038575,Mittelzentrum,"Remagen, Stadt"
7.24492191021495,50.5386120039115,Mittelzentrum,"Sinzig, Stadt"
7.87677004405538,50.7865870059216,Mittelzentrum,"Betzdorf, Stadt"
7.8793560381987,50.8102869957869,Mittelzentrum,"Kirchen (Sieg), Stadt"
7.73707810210706,50.7795070007551,Mittelzentrum,"Wissen, Stadt"
7.45748399878732,49.7868039760272,Mittelzentrum,"Kirn, Stadt"
7.67191891890735,49.7064199977469,Mittelzentrum,"Meisenheim, Stadt"
7.65182200499631,49.784296985171,Mittelzentrum,"Bad Sobernheim, Stadt"
7.33668193554865,49.6158880206717,Mittelzentrum,"Baumholder, Stadt"
7.16404097725305,49.6475219953949,Mittelzentrum,"Birkenfeld, Stadt"
7.32010789704365,49.7009579699216,Mittelzentrum,"Idar-Oberstein, Stadt"
7.16637497795374,50.1480260282537,Mittelzentrum,"Cochem, Stadt"
7.18153909944544,50.0279419969424,Mittelzentrum,"Zell (Mosel), Stadt"
7.57771002279445,50.4228350018328,Mittelzentrum,"Bendorf, Stadt"
7.61484406850261,50.399470013153,Mittelzentrum,"Vallendar, Stadt"
7.65696605410044,50.547351992497,Mittelzentrum,"Dierdorf, Stadt"
7.47461889364832,50.4424670073424,Mittelzentrum,"Neuwied, Stadt"
7.4416478892913,50.0712870259971,Mittelzentrum,"Kastellaun, Stadt"
7.70384792128603,50.1567230005477,Mittelzentrum,"Sankt Goar, Stadt"
7.52430204896078,49.9839440058737,Mittelzentrum,"Simmern/ Hunsrack, Stadt"
7.60379890253301,50.3099560157536,Mittelzentrum,"Lahnstein, Stadt"
7.85746110268323,50.1994329697441,Mittelzentrum,"Nastatten, Stadt"
7.72151009429367,50.1523360032548,Mittelzentrum,"Sankt Goarshausen, Loreleystadt, Stadt"
7.78614095249085,50.4562290110437,Mittelzentrum,Dernbach (Westerwald)
7.67126507868355,50.4334869943315,Mittelzentrum,"Hehr-Grenzhausen, Stadt"
7.83245709826627,50.4342270018863,Mittelzentrum,"Montabaur, Stadt"
7.79978498890328,50.4730399913872,Mittelzentrum,"Wirges, Stadt"
7.81955593256808,50.6626129901848,Mittelzentrum,"Hachenburg, Stadt"
7.96840991424978,50.5608559817472,Mittelzentrum,"Westerburg, Stadt"
7.07542101635143,49.9163399872213,Mittelzentrum,"Bernkastel-Kues, Stadt"
7.11641590016408,49.9511030186365,Mittelzentrum,"Traben-Trarbach, Stadt"
6.52475319777723,49.9757689878207,Mittelzentrum,"Bitburg, Stadt"
6.29475117132136,50.0105939829482,Mittelzentrum,"Neuerburg, Stadt"
6.5762461089181,49.6966359722778,Mittelzentrum,"Konz, Stadt"
8.1531050421808,49.3464810395084,Mittelzentrum,"Neustadt an der Weinstrate, Stadt"
8.25656710288891,49.3630019402212,Mittelzentrum,Haeloch
8.07118093282555,49.5594490508897,Mittelzentrum,"Eisenberg (Pfalz), Stadt"
8.00751002747858,49.6679379679352,Mittelzentrum,"Kirchheimbolanden, Stadt"
7.82014293466599,49.6288819919901,Mittelzentrum,"Rockenhausen, Stadt"
8.1935770532378,49.0820660294341,Mittelzentrum,"Kandel, Stadt"
8.26348408713098,49.0495150574769,Mittelzentrum,"Whrth am Rhein, Stadt"
7.40568999475578,49.5383259709701,Mittelzentrum,"Kusel, Stadt"
7.59148000399712,49.6502489888972,Mittelzentrum,"Lauterecken, Stadt"
8.1271470288392,49.2824870036353,Mittelzentrum,"Edenkoben, Stadt"
8.21251194186093,49.1463530671042,Mittelzentrum,Herxheim bei Landau/ Pfalz
7.96448300411924,49.2042640063165,Mittelzentrum,"Annweiler am Trifels, Stadt"
8.20169396547202,49.9078759890615,Mittelzentrum,"Nieder-Olm, Stadt"
8.34180289686133,49.870463963854,Mittelzentrum,"Nierstein, Stadt"
8.33517593847601,49.8525250107643,Mittelzentrum,"Oppenheim, Stadt"
9.01478196669284,48.6843069731171,Mittelzentrum,"Btblingen, Stadt"
9.0058819596044,48.7111130493932,Mittelzentrum,"Sindelfingen, Stadt"
9.14517800520935,49.0038109808216,Mittelzentrum,"Besigheim, Stadt"
9.18987803865753,48.8641130673374,Mittelzentrum,"Kornwestheim, Stadt"
9.19597705302132,48.9026149414512,Mittelzentrum,"Ludwigsburg, Stadt"
9.13437895792203,48.948711034107,Mittelzentrum,"Bietigheim-Bissingen, Stadt"
9.27477603787181,48.8139080462485,Mittelzentrum,"Fellbach, Stadt"
9.31997396204151,48.832008047977,Mittelzentrum,"Waiblingen, Stadt"
12.7230329256241,50.7875060024647,Mittelzentrum,"Oberlungwitz, Stadt"
8.32282699340309,48.7996790360307,Mittelzentrum,"Gaggenau, Stadt"
8.34559598590096,48.7624089989176,Mittelzentrum,"Gernsbach, Stadt"
12.6307460699802,50.7562099978193,Mittelzentrum,"Lichtenstein/Sa., Stadt"
8.6428899008449,49.3053129390983,Mittelzentrum,"Walldorf, Stadt"
8.70328898677215,49.2962150044351,Mittelzentrum,"Wiesloch, Stadt"
12.711193989531,50.8014109923213,Mittelzentrum,"Hohenstein-Ernstthal, Stadt"
7.69601096715634,47.9123078615672,Mittelzentrum,"Bad Krozingen, Stadt"
12.739494029581,50.5574109917797,Mittelzentrum,"Lauter-Bernsbach, Stadt"
8.08080192955027,48.2786098774665,Mittelzentrum,"Haslach im Kinzigtal, Stadt"
8.16761399499153,48.2825510615573,Mittelzentrum,"Hausach, Stadt"
8.22534397962828,48.300274012565,Mittelzentrum,"Wolfach, Stadt"
12.4051219601382,50.5309180080482,Mittelzentrum,"Rodewisch, Stadt"
12.3660029000789,50.475512997387,Mittelzentrum,"Falkenstein/Vogtl., Stadt"
12.3941030063729,50.4838140122728,Mittelzentrum,Ellefeld
12.402204996395,50.5121920054544,Mittelzentrum,"Auerbach/Vogtl., Stadt"
9.78266299098024,48.4143141000077,Mittelzentrum,"Blaubeuren, Stadt"
9.68786602782147,48.4887118790705,Mittelzentrum,"Laichingen, Stadt"
12.7947420271866,50.5394480138283,Mittelzentrum,"Schwarzenberg/Erzgeb., Stadt"
12.6411788975739,50.5883749924283,Mittelzentrum,"Schneeberg, Stadt"
12.6789779391389,48.2247731082233,Mittelzentrum,"Altetting, Stadt"
12.6940890156331,48.2403559978647,Mittelzentrum,"Neuktting, Stadt"
12.9353109339929,47.9383798943859,Mittelzentrum,"Laufen, Stadt"
11.4723269991407,47.8707161361074,Mittelzentrum,"Geretsried, Stadt"
11.4195280247685,47.9122120583893,Mittelzentrum,"Wolfratshausen, Stadt"
11.9729159581172,48.0751110538365,Mittelzentrum,"Ebersberg, Stadt"
11.9664170100937,48.0448111298341,Mittelzentrum,"Grafing b.Mtnchen, Stadt"
11.6228236263901,48.2972132848019,Mittelzentrum,Eching
12.7364149260333,50.622162010436,Mittelzentrum,"Lohnitz, Stadt"
11.6663228967195,48.3141153117219,Mittelzentrum,Neufahrn b.Freising
12.6982458966943,50.6156770143979,Mittelzentrum,Bad Schlema
11.7248339649196,47.7131960759814,Mittelzentrum,Bad Wiessee
11.7399210161423,47.7496150601666,Mittelzentrum,Gmund a.Tegernsee
11.8340199785992,47.7497181370767,Mittelzentrum,Hausham
11.8340440361796,47.7891809859588,Mittelzentrum,"Miesbach, Stadt"
11.7707429550967,47.6911199230144,Mittelzentrum,Rottach-Egern
11.7609739688167,47.7059288964773,Mittelzentrum,"Tegernsee, Stadt"
12.5927030188917,47.9673120049553,Mittelzentrum,"Traunreut, Stadt"
12.7073050731302,50.5957830118113,Mittelzentrum,"Aue, Stadt"
12.5566529823098,48.0270769114263,Mittelzentrum,"Trostberg, Stadt"
10.9201859896014,47.7972339007132,Mittelzentrum,"Peiting, Markt"
10.8991529996119,47.8156699710023,Mittelzentrum,"Schongau, Stadt"
13.6007319120058,48.7306829773754,Mittelzentrum,"Waldkirchen, Stadt"
11.8527180112622,48.81421701097,Mittelzentrum,"Abensberg, Stadt"
11.7658980132861,48.8032529698055,Mittelzentrum,"Neustadt a.d.Donau, Stadt"
13.6233800240211,48.6522739604505,Mittelzentrum,"Hauzenberg, Stadt"
13.3108860590343,48.4010120442834,Mittelzentrum,"Pocking, Stadt"
13.3356859736063,48.4375149798511,Mittelzentrum,"Ruhstorf a.d.Rott, Markt"
13.1290890107608,48.9704129632879,Mittelzentrum,"Regen, Stadt"
13.2345870407432,49.0148119968003,Mittelzentrum,"Zwiesel, Stadt"
13.0277809408604,48.2669030170518,Mittelzentrum,"Simbach a.Inn, Stadt"
12.8475940299957,49.3101160216472,Mittelzentrum,"Furth im Wald, Stadt"
11.8294240237966,49.7530840204858,Mittelzentrum,"Eschenbach i.d.OPf., Stadt"
11.9050310507906,49.7192219331107,Mittelzentrum,"Grafenwahr, Stadt"
11.9353190129874,49.7683880116996,Mittelzentrum,"Pressath, Stadt"
12.0408509528365,49.2091480096129,Mittelzentrum,"Burglengenfeld, Stadt"
12.1097119757038,49.1898119441066,Mittelzentrum,"Maxhltte-Haidhof, Stadt"
12.0897110219947,49.221507975461,Mittelzentrum,"Teublitz, Stadt"
12.3056890339642,50.0052109750218,Mittelzentrum,"Waldsassen, Stadt"
11.2501710167382,50.1249509897235,Mittelzentrum,Altenkunstadt
11.2516979941885,50.1408080030373,Mittelzentrum,"Burgkunstadt, Stadt"
9.18282203920745,49.9971759851482,Mittelzentrum,"Goldbach, Markt"
9.2034360303175,50.0035390272124,Mittelzentrum,"Hesbach, Markt"
9.16277698943174,49.8479120197454,Mittelzentrum,"Elsenfeld, Markt"
9.16187798955384,49.8022120173234,Mittelzentrum,"Erlenbach a.Main, Stadt"
9.14327802683036,49.8366090069991,Mittelzentrum,"Obernburg a.Main, Stadt"
10.8808201039037,48.4249181770693,Mittelzentrum,"Gersthofen, Stadt"
10.8582350218629,48.4898587826556,Mittelzentrum,Langweid a.Lech
10.4957060035145,48.5803990596239,Mittelzentrum,"Dillingen a.d.Donau, GKSt"
10.4288850088542,48.5685731221289,Mittelzentrum,"Lauingen (Donau), Stadt"
10.2743040040704,48.4551050892158,Mittelzentrum,"Gunzburg, GKSt"
10.2170539976198,48.4473109833985,Mittelzentrum,"Leipheim, Stadt"
10.0451588323006,48.3230132884987,Mittelzentrum,"Senden, Stadt"
10.0797573377102,48.2772132619665,Mittelzentrum,"Vehringen, Stadt"
10.2207940029456,47.559181121865,Mittelzentrum,"Immenstadt i.Allgru, Stadt"
10.2813920101416,47.5115660580851,Mittelzentrum,"Sonthofen, Stadt"
11.7528459846663,52.9947370135674,Mittelzentrum,"Wittenberge, Stadt"
12.1766779892798,53.1495100235377,Mittelzentrum,"Pritzwalk, Stadt"
11.8616000020433,53.0766809343328,Mittelzentrum,"Perleberg, Stadt"
12.9348529717672,52.3765999911119,Mittelzentrum,"Werder (Havel), Stadt"
13.5064750621887,52.3877140680024,Mittelzentrum,Schbnefeld
13.6361730347057,52.3268450114749,Mittelzentrum,"Wildau, Stadt"
13.3943309678924,51.5156189858212,Mittelzentrum,"Bad Liebenwerda, Stadt"
13.5175389470387,51.4582490060381,Mittelzentrum,"Elsterwerda, Stadt"
13.157489017479,53.0073699891734,Mittelzentrum,"Gransee, Stadt"
13.3324529181751,52.9794409511117,Mittelzentrum,"Zehdenick, Stadt"
14.0108789325562,51.5878399781549,Mittelzentrum,"Grodrnschen, Stadt"
13.7620409605749,51.4944620099509,Mittelzentrum,"Lauchhammer, Stadt"
13.8561779847206,51.4773639851473,Mittelzentrum,"Schwarzheide, Stadt"
14.004890978005,51.5204130101404,Mittelzentrum,"Senftenberg, Stadt"
12.4859669658945,53.1631849562745,Mittelzentrum,"Wittstock/Dosse, Stadt"
12.9779769776034,52.2323640158524,Mittelzentrum,"Beelitz, Stadt"
6.45374187186029,51.6653099783978,Mittelzentrum,"Xanten, Stadt"
11.5840179912098,51.85100899935,Mittelzentrum,"Stalfurt, Stadt"
11.7283640569806,52.0075260322809,Mittelzentrum,"Schlnebeck (Elbe), Stadt"
7.03442692982955,51.0392069957678,Mittelzentrum,"Leverkusen, Stadt"
11.7507150386867,51.798511999089,Mittelzentrum,"Bernburg (Saale), Stadt"
6.16339390027372,50.8763357930385,Mittelzentrum,"Alsdorf, Stadt"
6.17918654905685,50.9109172843416,Mittelzentrum,"Baesweiler, Stadt"
6.26301194400172,50.8219464437668,Mittelzentrum,"Eschweiler, Stadt"
6.09569202938418,50.8688385356981,Mittelzentrum,"Herzogenrath, Stadt"
6.23981557157803,50.5573986213119,Mittelzentrum,"Monschau, Stadt"
6.23015293990617,50.7680467924178,Mittelzentrum,"Stolberg (Rhld.), Kupferstadt"
6.12901972111216,50.8249752052905,Mittelzentrum,"Wtrselen, Stadt"
6.49353917048767,50.8053130047108,Mittelzentrum,"Dlren, Stadt"
6.36594277991766,50.9258079917154,Mittelzentrum,"Jnlich, Stadt"
6.5734299889051,50.9909970028962,Mittelzentrum,"Bedburg, Stadt"
6.64018908653077,50.9551730001715,Mittelzentrum,"Bergheim, Stadt"
6.90382991263547,50.8321079968725,Mittelzentrum,"Brrhl, Stadt"
6.78950910346858,50.8040160043333,Mittelzentrum,"Erftstadt, Stadt"
6.81546704780144,50.9129789974027,Mittelzentrum,"Frechen, Stadt"
6.8882299546501,50.8778109943738,Mittelzentrum,"Hrrth, Stadt"
6.69550294048604,50.8692319987983,Mittelzentrum,"Kerpen, Kolpingstadt"
6.80183209773044,50.9976080066258,Mittelzentrum,"Pulheim, Stadt"
6.98106099849231,50.8256840130532,Mittelzentrum,"Wesseling, Stadt"
6.79103201759077,50.6567119944278,Mittelzentrum,"Euskirchen, Stadt"
6.6538350457874,50.588413010663,Mittelzentrum,"Mechernich, Stadt"
6.47373891081423,50.5299110007323,Mittelzentrum,"Schleiden, Stadt"
6.31924379310756,51.0814089912155,Mittelzentrum,"Erkelenz, Stadt"
6.11974794070762,50.9665110015614,Mittelzentrum,"Geilenkirchen, Stadt"
6.09954918867678,51.0674130012478,Mittelzentrum,"Heinsberg, Stadt"
6.22874620800667,51.0487140042718,Mittelzentrum,"Heckelhoven, Stadt"
6.1192559227848,50.920592993803,Mittelzentrum,"Sbach-Palenberg, Stadt"
6.26630879298049,51.1415709959511,Mittelzentrum,"Wegberg, Stadt"
7.4076189606024,50.9891089981742,Mittelzentrum,Engelskirchen
7.56481396235798,51.0276109952954,Mittelzentrum,"Gummersbach, Stadt"
7.36802100474596,51.2071079966196,Mittelzentrum,"Radevormwald, Stadt auf der H"
7.61801290073274,50.8765110017074,Mittelzentrum,"Waldbrhl, Stadt"
7.39921897298733,51.1176069963541,Mittelzentrum,"WipperfSrth, Hansestadt"
7.131223962579,50.9902109979091,Mittelzentrum,"Bergisch Gladbach, Stadt"
7.01630091678859,51.1053729979065,Mittelzentrum,"Leichlingen (Rheinland), Bl tenstadt"
7.21647098772825,51.1390229954078,Mittelzentrum,"Wermelskirchen, Stadt"
7.2285649251592,50.6404720129423,Mittelzentrum,"Bad Honnef, Stadt"
6.98412810759686,50.7643130027364,Mittelzentrum,"Bornheim, Stadt"
7.45041701652879,50.7715030079025,Mittelzentrum,Eitorf
7.29741995595927,50.7718119920124,Mittelzentrum,"Hennef (Sieg), Stadt"
7.19192201484496,50.6781079963835,Mittelzentrum,"Kenigswinter, Stadt"
7.22396402259723,50.8510780028165,Mittelzentrum,"Lohmar, Stadt"
7.03832689001641,50.811213993918,Mittelzentrum,"Niederkassel, Stadt"
6.94612892337738,50.6254079876217,Mittelzentrum,"Rheinbach, Stadt"
7.187723037706,50.7709120058712,Mittelzentrum,"Sankt Augustin, Stadt"
7.20712306127803,50.7997089996333,Mittelzentrum,"Siegburg, Stadt"
7.14687805882535,50.8180499996176,Mittelzentrum,"Troisdorf, Stadt"
6.92923008511387,51.5260120082036,Mittelzentrum,"Bottrop, Stadt"
7.07912695692064,51.5529099722313,Mittelzentrum,"Gelsenkirchen, Stadt"
11.4500170004446,51.7598650270416,Mittelzentrum,"Aschersleben, Stadt"
7.00474503408149,52.0764120311871,Mittelzentrum,"Ahaus, Stadt"
6.62095911361006,51.8388630174253,Mittelzentrum,"Bocholt, Stadt"
6.85203197569809,51.84970898329,Mittelzentrum,"Borken, Stadt"
7.02782405723064,52.2065770303405,Mittelzentrum,"Gronau (Westf.), Stadt"
6.91439497137316,51.9913140172478,Mittelzentrum,"Stadtlohn, Stadt"
6.82273195835367,52.0328139796406,Mittelzentrum,"Vreden, Stadt"
7.17326809518251,51.9474110149942,Mittelzentrum,"Coesfeld, Stadt"
7.27802107598201,51.8288080296676,Mittelzentrum,"Dolmen, Stadt"
7.44781706699691,51.7713130220403,Mittelzentrum,"Ladinghausen, Stadt"
7.31962091900812,51.5481069812903,Mittelzentrum,"Castrop-Rauxel, Stadt"
7.34481993838469,51.6482119915551,Mittelzentrum,"Datteln, Stadt"
6.96382905348446,51.6584129873049,Mittelzentrum,"Dorsten, Stadt"
6.98802896820913,51.5800090137169,Mittelzentrum,"Gladbeck, Stadt"
7.18982301718352,51.7413099988777,Mittelzentrum,"Haltern am See, Stadt"
7.14272505407156,51.5958139748423,Mittelzentrum,"Herten, Stadt"
7.09572607662639,51.6540110040821,Mittelzentrum,"Marl, Stadt"
7.26262196946581,51.639712990648,Mittelzentrum,"Oer-Erkenschwick, Stadt"
7.19332299470544,51.6143070255291,Mittelzentrum,"Recklinghausen, Stadt"
7.39173388967523,51.6231000172042,Mittelzentrum,"Waltrop, Stadt"
7.52931610864252,52.1738089682731,Mittelzentrum,"Emsdetten, Stadt"
7.60761391827947,52.0954129854681,Mittelzentrum,"Greven, Stadt"
7.72091102456675,52.2908099488653,Mittelzentrum,"Ibbenbaren, Stadt"
7.86110801512113,52.1859089524091,Mittelzentrum,"Lengerich, Stadt"
7.18535190703284,52.2110790562848,Mittelzentrum,"Ochtrup, Stadt"
7.44671711659145,52.2781139362554,Mittelzentrum,"Rheine, Stadt"
7.34192005342552,52.1497150502785,Mittelzentrum,"Steinfurt, Stadt"
7.89020701862721,51.7634090106918,Mittelzentrum,"Ahlen, Stadt"
8.04190301795952,51.7600099783271,Mittelzentrum,"Beckum, Stadt"
8.14780096782261,51.8305130135011,Mittelzentrum,"Oelde, Stadt"
7.99490489509187,51.9550129694834,Mittelzentrum,"Warendorf, Stadt"
11.9840289495891,51.3467370139091,Mittelzentrum,"Merseburg, Stadt"
8.37779494297495,51.9053120100722,Mittelzentrum,"Gotersloh, Stadt"
8.34877604043312,52.0662919662487,Mittelzentrum,"Halle (Westf.), Stadt"
8.29193703788105,51.8494680205743,Mittelzentrum,"Rheda-Wiedenbrrck, Stadt"
8.43009489770723,51.8122099732389,Mittelzentrum,"Rietberg, Stadt"
8.56619010849128,52.2028240685486,Mittelzentrum,"Bende, Stadt"
8.67632998875328,52.1168169664161,Mittelzentrum,"Herford, Hansestadt"
8.71958696687373,52.1979099431598,Mittelzentrum,"Lihne, Stadt"
8.84838398734036,52.158313978238,Mittelzentrum,"Vlotho, Stadt"
9.02286403784107,51.7342340174552,Mittelzentrum,"Bad Driburg, Stadt"
9.37297201262703,51.6628109982699,Mittelzentrum,"Beverungen, Stadt"
9.17897605499951,51.7192079948869,Mittelzentrum,"Brakel, Stadt"
9.38123394585032,51.7742200221915,Mittelzentrum,"Hrxter, Stadt"
9.09323000645029,51.8643070126359,Mittelzentrum,"Steinheim, Stadt"
9.15434896074907,51.4893990155056,Mittelzentrum,"Warburg, Hansestadt"
8.73775396344712,52.0838850127236,Mittelzentrum,"Bad Salzuflen, Stadt"
9.11857703608462,51.9910130225007,Mittelzentrum,"Barntrup, Stadt"
9.08297698142916,51.9380910066643,Mittelzentrum,"Blomberg, Stadt"
8.87258198340099,51.9349100288348,Mittelzentrum,"Detmold, Stadt"
8.94618195751986,51.8727110202927,Mittelzentrum,"Horn-Bad Meinberg, Stadt"
8.79351398122489,51.9925920100043,Mittelzentrum,"Lage, Stadt"
8.90190595893361,52.0335309700951,Mittelzentrum,"Lemgo, Stadt"
8.80398496509791,52.2158129446746,Mittelzentrum,"Bad Oeynhausen, Stadt"
8.61678998764672,52.3752139464003,Mittelzentrum,"Espelkamp, Stadt"
8.61701997340583,52.3085329691592,Mittelzentrum,"Libbecke, Stadt"
8.91858296548005,52.2978170220509,Mittelzentrum,"Minden, Stadt"
8.96908101225028,52.3814130477268,Mittelzentrum,"Petershagen, Stadt"
8.92328794129333,52.2445830692485,Mittelzentrum,"Porta Westfalica, Stadt"
8.56139193435716,51.5551070010429,Mittelzentrum,"Boren, Stadt"
8.56529103898696,51.7647089907651,Mittelzentrum,"Delbr,ck, Stadt"
11.2937699889234,51.4717859890017,Mittelzentrum,"Sangerhausen, Stadt"
11.5465179661945,51.5323599970413,Mittelzentrum,"Eisleben, Lutherstadt"
11.858637986061,52.2727579911356,Mittelzentrum,"Burg, Stadt"
10.7943910023626,51.8381960190805,Mittelzentrum,"Wernigerode, Stadt"
7.81630804870543,51.6833079953866,Mittelzentrum,"Hamm, Stadt"
7.21692208100922,51.5445099737936,Mittelzentrum,"Herne, Stadt"
7.34002008184474,51.2983090172903,Mittelzentrum,"Ennepetal, Stadt der Kluterththle"
7.33952010129192,51.3191150119279,Mittelzentrum,"Gevelsberg, Stadt"
7.19052295610793,51.3971100116971,Mittelzentrum,"Hattingen, Stadt"
7.43461692791216,51.3977089903002,Mittelzentrum,"Herdecke, Stadt"
7.30172097291525,51.2881129934031,Mittelzentrum,"Schwelm, Stadt"
7.25562097595368,51.3724140004198,Mittelzentrum,"Sprockh,vel, Stadt"
7.39131908139179,51.3844110003848,Mittelzentrum,"Wetter (Ruhr), Stadt"
7.33761988922864,51.4399069800994,Mittelzentrum,"Witten, Stadt"
8.06507491378745,51.3964350074669,Mittelzentrum,"Arnsberg, Stadt"
8.56409202580706,51.3951110090198,Mittelzentrum,"Brilon, Stadt"
8.84759998913789,51.4617840040099,Mittelzentrum,"Marsberg, Stadt"
8.28255898502203,51.3455849890702,Mittelzentrum,"Meschede, Kreis- und  Hochschulstadt"
8.31391509930663,51.1646730081465,Mittelzentrum,"Schmallenberg, Stadt"
8.00874900165077,51.3302149828222,Mittelzentrum,"Sundern (Sauerland), Stadt"
8.52988693196049,51.1972729919909,Mittelzentrum,"Winterberg, Stadt"
7.67571194975301,51.3008079869537,Mittelzentrum,"Altena, Stadt"
7.76091391036754,51.3947719866139,Mittelzentrum,"Hemer, Stadt"
7.69481200605866,51.3782120061008,Mittelzentrum,"Iserlohn, Stadt"
7.62871500447259,51.2166750036379,Mittelzentrum,"Lidenscheid, Stadt"
7.64151293214966,51.1065100069711,Mittelzentrum,"Meinerzhagen, Stadt"
7.8037070427494,51.4323040074953,Mittelzentrum,"Menden (Sauerland), Stadt"
7.87160798121956,51.210308006121,Mittelzentrum,"Plettenberg, Stadt"
7.76336706796427,51.2525219939844,Mittelzentrum,"Werdohl, Stadt"
7.90770597314765,51.1216129963572,Mittelzentrum,"Attendorn, Hansestadt"
8.02040409555495,51.1451110081794,Mittelzentrum,"Lennestadt, Stadt"
7.84570691026139,51.0290149977602,Mittelzentrum,"Olpe, Stadt"
8.39179398549261,51.0450129989518,Mittelzentrum,"Bad Berleburg, Stadt"
7.98808090209559,50.9617879999785,Mittelzentrum,"Kreuztal, Stadt"
8.41169290214535,50.9275860013498,Mittelzentrum,"Bad Laasphe, Stadt"
8.00197299351322,50.7905620034704,Mittelzentrum,Neunkirchen
11.1694980136348,51.7350033658314,Mittelzentrum,"Quedlinburg, Stadt"
8.50909189260633,51.6425090160168,Mittelzentrum,"Geseke, Stadt"
8.36778607175915,51.6718979948564,Mittelzentrum,"Lippstadt, Stadt"
8.11030202960029,51.5705110142622,Mittelzentrum,"Soest, Stadt"
8.35492689469363,51.450026986731,Mittelzentrum,"Warstein, Stadt"
7.91454993983213,51.5541990057853,Mittelzentrum,"Werl, Stadt"
7.66053406469094,51.6195370095867,Mittelzentrum,"Bergkamen, Stadt"
7.66236997454846,51.5879669673273,Mittelzentrum,"Kamen, Stadt"
7.52633993775169,51.6093980060788,Mittelzentrum,"Lanen, Stadt"
7.57300304095993,51.4434279956754,Mittelzentrum,"Schwerte, Hansestadt an der Ruhr"
7.4689170083817,51.6959080097736,Mittelzentrum,"Selm, Stadt"
7.69577905553774,51.5336270106849,Mittelzentrum,"Unna, Stadt"
7.63471295324711,51.6697080335031,Mittelzentrum,"Werne, Stadt"
12.1274730165154,51.0498469950622,Mittelzentrum,"Zeitz, Stadt"
11.96635099194,51.1981960077868,Mittelzentrum,"Weicenfels, Stadt"
11.8034790525377,51.1500699915672,Mittelzentrum,"Naumburg (Saale), Stadt"
11.235922013232,52.0316160046594,Mittelzentrum,"Oschersleben (Bode), Stadt"
8.61908897508204,49.6776119316685,Mittelzentrum,"Bensheim, Stadt"
8.45519403922846,49.6404080014557,Mittelzentrum,"Birstadt, Stadt"
8.63936601650924,49.6427760184492,Mittelzentrum,"Heppenheim (Bergstrape), Kreisstadt"
8.46731894879076,49.5939179603987,Mittelzentrum,"Lampertheim, Stadt"
8.56697600047686,49.6515539843155,Mittelzentrum,"Lorsch, Karolingerstadt"
8.58289905926602,49.5382310576566,Mittelzentrum,"Viernheim, Stadt"
8.84672395523646,49.8987620003499,Mittelzentrum,"Dieburg, Stadt"
8.55499204117577,49.8591079700897,Mittelzentrum,"Griesheim, Stadt"
8.93128302276412,49.8661119763823,Mittelzentrum,"Groe-Umstadt, Stadt"
8.59608997433412,49.8031689849679,Mittelzentrum,"Pfungstadt, Stadt"
8.59799001066715,49.8981130291142,Mittelzentrum,"Weiterstadt, Stadt"
8.48289308181021,49.9209100036599,Mittelzentrum,"Gros-Gerau, Stadt"
8.58029105526801,49.9893110169187,Mittelzentrum,"Merfelden-Walldorf, Stadt"
11.4061229917293,52.2910120535754,Mittelzentrum,"Haldensleben, Stadt"
8.60724393876235,50.2318230251268,Mittelzentrum,Bad Homburg v. d. H
8.63393798733219,50.2544669903715,Mittelzentrum,"Friedrichsdorf, Stadt"
8.47429401655575,50.1810069750377,Mittelzentrum,"Krnigstein im Taunus, Stadt"
8.51169193427184,50.178908986564,Mittelzentrum,"Kronberg im Taunus, Stadt"
8.58729101791656,50.1984100009003,Mittelzentrum,"Oberursel (Taunus), Stadt"
8.53849108060835,50.3335110020556,Mittelzentrum,"Usingen, Stadt"
9.34827195966442,50.2292100256956,Mittelzentrum,"Bad Orb, Stadt"
9.36777204100179,50.277808985709,Mittelzentrum,Bad Soden-Salm
8.92168202066717,50.1785089934421,Mittelzentrum,"Bruchktbel, Stadt"
9.19467603497083,50.2001080217786,Mittelzentrum,"Gelnhausen, Barbarossast., Krst."
12.085422992682,51.9649280014454,Mittelzentrum,"Zerbst/Anhalt, Stadt"
8.82348505114014,50.149810991745,Mittelzentrum,"Maintal, Stadt"
9.52366794855257,50.3522070029871,Mittelzentrum,"Schlechtern, Stadt"
9.28657394632576,50.2560120105746,Mittelzentrum,"Wtchtersbach, Stadt"
8.50489190650572,50.1407090253721,Mittelzentrum,"Bad Soden am Taunus, Stadt"
8.56479193658624,50.1436080281302,Mittelzentrum,"Eschborn, Stadt"
8.43239396844981,50.0151140308511,Mittelzentrum,"Flcrsheim am Main, Stadt"
8.48989191436264,50.0685080230007,Mittelzentrum,"Hattersheim am Main, Stadt"
8.35629702589049,50.0106119733619,Mittelzentrum,"Hochheim am Main, Stadt"
8.44419295187334,50.0831149648564,Mittelzentrum,"Hofheim am Taunus, Kreisstadt"
8.45429293808912,50.1335109880534,Mittelzentrum,"Kelkheim (Taunus), Stadt"
8.52989206906323,50.1538089795171,Mittelzentrum,"Schwalbach am Taunus, Stadt"
8.99449695338337,49.6566280387344,Mittelzentrum,"Erbach, Kreisstadt"
9.0016810240325,49.6838110395665,Mittelzentrum,"Michelstadt, Stadt"
8.7749860215277,50.0145070024177,Mittelzentrum,"Dietzenbach, Kreisstadt"
8.6945889981252,50.0191120061443,Mittelzentrum,"Dreieich, Stadt"
8.80268599334059,50.0580140151093,Mittelzentrum,"Heusenstamm, Stadt"
8.67798900037138,49.9882129815239,Mittelzentrum,"Langen (Hessen), Stadt"
8.83188404985036,50.1237110296105,Mittelzentrum,"Mahlheim am Main, Stadt"
8.69625800671239,50.0480880225407,Mittelzentrum,"Neu-Isenburg, Stadt"
8.85208500345126,50.0721129984812,Mittelzentrum,"Obertshausen, Stadt"
8.88975895040935,50.0123630075473,Mittelzentrum,"Rodgau, Stadt"
8.82392903078386,49.9833150134338,Mittelzentrum,"Rodermark, Stadt"
8.97018103521091,50.0428120118324,Mittelzentrum,"Seligenstadt, Stadt"
8.069602931968,50.1412120175223,Mittelzentrum,"Bad Schwalbach, Kreisstadt"
8.11470105786854,50.0229109989193,Mittelzentrum,"Eltville am Rhein, Stadt"
7.96270508596437,49.9840129709777,Mittelzentrum,"Geisenheim, Stadt"
8.26589696796572,50.2242129881224,Mittelzentrum,"Idstein, Stadt"
7.92636808199772,49.9785540081104,Mittelzentrum,"Redesheim am Rhein, Stadt"
8.15070110064279,50.1399119672853,Mittelzentrum,"Taunusstein, Stadt"
11.9915090425714,51.7539140007164,Mittelzentrum,"Kithen (Anhalt), Stadt"
8.73898804044285,50.1852110103217,Mittelzentrum,"Bad Vilbel, Stadt"
9.10597902951881,50.2841069901951,Mittelzentrum,"Badingen, Stadt"
8.67217596349248,50.4303700039193,Mittelzentrum,"Butzbach, Friedrich-Ludwig-Weidig-Stadt"
12.3265260171174,51.626881000972,Mittelzentrum,"Bitterfeld-Wolfen, Stadt"
9.00868096601411,50.4175070152749,Mittelzentrum,"Nidda, Stadt"
11.1621140084566,52.8510549507255,Mittelzentrum,"Salzwedel, Hansestadt"
8.95768197337218,50.5929110004042,Mittelzentrum,"Grenberg, Stadt"
9.69946199429497,53.5837140516914,Mittelzentrum,"Wedel, Stadt"
8.98548099184752,50.5406109931044,Mittelzentrum,"Laubach, Stadt"
9.83295802580248,54.4779130953103,Mittelzentrum,"Eckernforde, Stadt"
8.28762902711701,50.7359770042408,Mittelzentrum,"Dillenburg, Stadt"
8.20199991467601,50.7440069946919,Mittelzentrum,"Haiger, Stadt"
8.30265906806704,50.6801909920622,Mittelzentrum,"Herborn, Stadt"
12.9916980411783,51.5565259815811,Mittelzentrum,"Torgau, Stadt"
12.2212040556386,51.3914109965598,Mittelzentrum,"Schkeuditz, Stadt"
8.26297197585089,50.4823459995152,Mittelzentrum,"Weilburg, Stadt"
8.52824406145367,50.9108700022907,Mittelzentrum,"Biedenkopf, Stadt"
8.58477509498631,50.7721140005751,Mittelzentrum,"Gladenbach, Stadt"
8.92588299666055,50.8230129984233,Mittelzentrum,"Kirchhain, Stadt"
13.1082450001921,51.3002010071909,Mittelzentrum,"Oschatz, Stadt"
9.01313003572576,50.8241839983026,Mittelzentrum,"Stadtallendorf, Stadt"
9.26887394673624,50.7518120077144,Mittelzentrum,"Alsfeld, Stadt"
9.39757203634059,50.6348079995739,Mittelzentrum,"Lauterbach (Hessen), Kreisstadt"
12.6097190884827,51.4590070121099,Mittelzentrum,"Eilenburg, Stadt"
12.3368019581132,51.5257110179664,Mittelzentrum,"Delitzsch, Stadt"
9.76016199731008,50.6656109839221,Mittelzentrum,"Honfeld, Konrad-Zuse-Stadt"
12.7408919766663,51.3711130019613,Mittelzentrum,"Wurzen, Stadt"
9.7963620269071,50.9713129968835,Mittelzentrum,"Bebra, Stadt"
10.007664992969,50.8882519956767,Mittelzentrum,"Heringen (Werra), Stadt"
9.72396402132338,50.9948119976304,Mittelzentrum,"Rotenburg a. d. Fulda, Stadt"
9.42047005508406,51.2596130049311,Mittelzentrum,"Baunatal, Stadt"
9.38247103759792,51.4916080103311,Mittelzentrum,"Hofgeismar, Stadt"
9.46893104776481,51.3629909993185,Mittelzentrum,"Vellmar, Stadt"
9.17557594842096,51.322013996342,Mittelzentrum,"Wolfhagen, Stadt"
9.27327402849969,51.0553089971136,Mittelzentrum,"Borken (Hessen), Stadt"
9.27907501926275,51.1334110008751,Mittelzentrum,"Fritzlar, Dom- und Kaiserstadt"
9.40417102510265,51.0351100051385,Mittelzentrum,"Homberg (Efze), Kreisstadt"
12.3701009863331,51.2778090066535,Mittelzentrum,"Markkleeberg, Stadt"
9.18818996788919,50.9151989977379,Mittelzentrum,"Schwalmstadt, Stadt"
9.65736301385996,54.3052179067334,Mittelzentrum,"Rendsburg, Stadt"
8.99966200730598,51.3816179908848,Mittelzentrum,"Bad Arolsen, Stadt"
9.12732103077276,51.1201210033129,Mittelzentrum,"Bad Wildungen, Stadt"
9.56966500432456,54.5168110577564,Mittelzentrum,"Schleswig, Stadt"
8.80173701614299,51.0498430063021,Mittelzentrum,"Frankenberg (Eder), Stadt"
8.88038295942003,51.2769090042975,Mittelzentrum,"Korbach, Hansestadt"
10.0526560013589,51.1894069958678,Mittelzentrum,"Eschwege, Kreisstadt"
9.72256397693077,51.1983149994804,Mittelzentrum,"Hessisch Lichtenau, Stadt"
9.93495902283976,51.0679129994672,Mittelzentrum,"Sontra, Stadt"
9.85696000316757,51.3424070157451,Mittelzentrum,"Witzenhausen, Stadt"
12.7298929359379,51.239108993441,Mittelzentrum,"Grimma, Stadt"
9.54956797303549,51.1296419980524,Mittelzentrum,"Melsungen, Stadt"
9.95920499351093,53.8381160335554,Mittelzentrum,"Kaltenkirchen, Stadt"
10.0019550045408,53.684012945661,Mittelzentrum,"Norderstedt, Stadt"
9.13267602108933,53.8975139105127,Mittelzentrum,"Brunsbdttel, Stadt"
9.50970402478209,53.9292678598368,Mittelzentrum,"Itzehoe, Stadt"
10.241947995987,53.6763110001694,Mittelzentrum,"Ahrensburg, Stadt"
10.3766459982497,53.8107068991851,Mittelzentrum,"Bad Oldesloe, Stadt"
7.63983199055632,50.686366996957,Mittelzentrum,"Altenkirchen (Westerwald), Stadt"
7.86300805693033,49.8428879717737,Mittelzentrum,"Bad Kreuznach, Stadt"
9.09069698911137,54.1956899734058,Mittelzentrum,"Heide, Stadt"
10.3749460009365,53.4364130800942,Mittelzentrum,"Geesthacht, Stadt"
11.1796482913045,49.1942336534785,Mittelzentrum,"Hilpoltstein, Stadt"
10.2507605850706,49.8567889127961,Mittelzentrum,"Volkach, Stadt"
10.6898380070636,53.6264149556395,Mittelzentrum,"Malln, Stadt"
9.8596289840445,51.8169059856305,Mittelzentrum,"Einbeck, Stadt"
10.5403569951842,52.4884449818017,Mittelzentrum,"Gifhorn, Stadt"
10.738610001523,52.724800069513,Mittelzentrum,"Wittingen, Stadt"
7.39534290147917,50.4405020148863,Mittelzentrum,"Andernach, Stadt"
7.22593799412142,50.3251990231313,Mittelzentrum,"Mayen, Stadt"
10.2573499940432,51.5087090082951,Mittelzentrum,"Duderstadt, Stadt"
11.9802780488091,50.6493180102701,Mittelzentrum,"Zeulenroda-Triebes, Stadt"
9.65108298403841,51.4137840125396,Mittelzentrum,"Hann. Menden, Stadt"
7.27927803414578,50.5653989894866,Mittelzentrum,"Linz am Rhein, Stadt"
12.1972970422242,50.654644011445,Mittelzentrum,"Greiz, Stadt"
11.8080049782407,50.576561008862,Mittelzentrum,"Schleiz, Stadt"
11.5919609826418,50.6952590113383,Mittelzentrum,"Peuneck, Stadt"
11.6440139692305,50.4513090165098,Mittelzentrum,"Bad Lobenstein, Stadt"
7.5903220537968,50.228732998522,Mittelzentrum,"Boppard, Stadt"
7.71151196628235,50.3350220076693,Mittelzentrum,"Bad Ems, Stadt"
12.5030690794694,51.1273879995906,Mittelzentrum,"Borna, Stadt"
11.0013320118646,52.2370110189225,Mittelzentrum,"Helmstedt, Stadt"
10.0264560036239,51.8709140158438,Mittelzentrum,"Bad Gandersheim, Stadt"
10.003856017317,51.7096100000985,Mittelzentrum,"Northeim, Stadt"
9.64077501468005,51.6572460305251,Mittelzentrum,"Uslar, Stadt"
10.2447499864894,51.7250139835293,Mittelzentrum,"Osterode am Harz, Stadt"
10.2344500140976,52.3207090330042,Mittelzentrum,"Peine, Stadt"
10.540086996108,52.167824003504,Mittelzentrum,"Wolfenbnttel, Stadt"
11.7275219915937,50.858077999243,Mittelzentrum,"Stadtroda, Stadt"
9.45960704917263,52.3055040203861,Mittelzentrum,"Barsinghausen, Stadt"
13.9401579148102,50.9578739987457,Mittelzentrum,"Pirna, Stadt"
10.0054560251332,52.4477080427066,Mittelzentrum,"Burgdorf, Stadt"
9.84895901241442,52.4929079457707,Mittelzentrum,"Burgwedel, Stadt"
6.8928230397605,49.9852410233319,Mittelzentrum,"Wittlich, Stadt"
9.61276499188246,52.4372099760397,Mittelzentrum,"Garbsen, Stadt"
9.8050610221182,52.3027109835698,Mittelzentrum,"Laatzen, Stadt"
6.42332589791672,50.2073780000721,Mittelzentrum,"Prlm, Stadt"
6.66033707446835,50.2224429773709,Mittelzentrum,"Gerolstein, Stadt"
6.82959208514483,50.1994779680641,Mittelzentrum,"Daun, Stadt"
6.94802004030168,49.6541789820118,Mittelzentrum,"Hermeskeil, Stadt"
9.05157898788155,54.4750140505728,Mittelzentrum,"Husum, Stadt"
6.54864390546398,49.6083259276172,Mittelzentrum,"Saarburg, Stadt"
8.35659492723865,49.5356140423238,Mittelzentrum,"Frankenthal (Pfalz), Stadt"
13.6362719490168,50.9845160023637,Mittelzentrum,"Freital, Stadt"
13.6649719769726,50.8888129985089,Mittelzentrum,"Dippoldiswalde, Stadt"
13.2974010570158,51.3052290122089,Mittelzentrum,"Riesa, Stadt"
13.6557698976869,51.1057890103273,Mittelzentrum,"Radebeul, Stadt"
9.97585698212707,52.3733099536278,Mittelzentrum,"Lehrte, Stadt"
7.60377405122075,49.2052460625791,Mittelzentrum,"Pirmasens, Stadt"
13.4753759860108,51.162917994167,Mittelzentrum,"Meimen, Stadt"
13.5357870542792,51.2924650016826,Mittelzentrum,"Grodenhain, Stadt"
13.5803200466099,51.1300049976465,Mittelzentrum,"Coswig, Stadt"
8.11833393789842,49.750599046567,Mittelzentrum,"Alzey, Stadt"
8.17830792080629,49.4636000625702,Mittelzentrum,"Bad Dtrkheim, Stadt"
8.16425695235557,49.5625719857587,Mittelzentrum,"Grenstadt, Stadt"
9.45817596615052,52.5044399731058,Mittelzentrum,Neustadt am R
9.55696697174523,52.2103080027492,Mittelzentrum,"Springe, Stadt"
9.43376898590962,52.4215159984021,Mittelzentrum,"Wunstorf, Stadt"
8.3731959622364,52.6121139542326,Mittelzentrum,"Diepholz, Stadt"
8.37206400310178,49.2217450308256,Mittelzentrum,"Germersheim, Stadt"
8.74808604178227,53.0282099838587,Mittelzentrum,Stuhr
8.80168397576798,52.6835099913212,Mittelzentrum,"Sulingen, Stadt"
7.56859200537854,49.4121820482112,Mittelzentrum,"Landstuhl, Sickingenstadt, Stadt"
8.82388504686722,52.9096110004099,Mittelzentrum,"Syke, Stadt"
9.26072296966341,51.979808981554,Mittelzentrum,"Bad Pyrmont, Stadt"
8.00168694122747,49.1026120296291,Mittelzentrum,"Bad Bergzabern, Stadt"
11.9012329826464,50.9674839991753,Mittelzentrum,"Eisenberg, Stadt"
9.83242299714427,51.9848100157462,Mittelzentrum,"Alfeld (Leine), Stadt"
10.6194389905752,54.1336169993487,Mittelzentrum,"Eutin, Stadt"
7.892052903557,49.9680630196688,Mittelzentrum,"Bingen am Rhein, Stadt"
8.05539610631936,49.9741359758789,Mittelzentrum,"Ingelheim am Rhein, Stadt"
9.85385998621337,52.2362140021499,Mittelzentrum,"Sarstedt, Stadt"
9.45058300329281,51.8276520280152,Mittelzentrum,"Holzminden, Stadt"
9.20977500811892,52.639010954214,Mittelzentrum,"Nienburg (Weser), Stadt"
7.77868290302881,49.1507570375276,Mittelzentrum,"Dahn, Stadt"
14.8095668862961,50.8969610094442,Mittelzentrum,"Zittau, Stadt"
9.36747201753822,52.3255080086734,Mittelzentrum,"Bad Nenndorf, Stadt"
8.8676839959258,48.5967100372219,Mittelzentrum,"Herrenberg, Stadt"
9.01268101126832,48.7966120624408,Mittelzentrum,"Leonberg, Stadt"
9.0498610107093,52.2604709978906,Mittelzentrum,"Backeburg, Stadt"
9.30907500096841,48.7381100399125,Mittelzentrum,"Esslingen am Neckar, Stadt"
9.44807199652407,48.6466139475029,Mittelzentrum,"Kirchheim unter Teck, Stadt"
9.33787404128861,48.6248131089479,Mittelzentrum,"Nertingen, Stadt"
9.83826298578977,48.6219099174351,Mittelzentrum,"Geislingen an der Steige, Stadt"
9.64866501629305,48.7049640432414,Mittelzentrum,"Geppingen, Stadt"
9.08427796566691,52.1953129716752,Mittelzentrum,"Rinteln, Stadt"
9.20797504515371,52.3196110564148,Mittelzentrum,"Stadthagen, Stadt"
11.1754039771123,50.3577459949942,Mittelzentrum,"Sonneberg, Stadt"
8.95728001051964,48.9330860563151,Mittelzentrum,"Vaihingen an der Enz, Stadt"
8.69098796929485,53.8622130153277,Mittelzentrum,"Cuxhaven, Stadt"
9.43606500597696,48.945163981329,Mittelzentrum,"Backnang, Stadt"
9.16847504178273,53.6892090431937,Mittelzentrum,"Hemmoor, Stadt"
9.52557794923185,48.8050959362939,Mittelzentrum,"Schorndorf, Stadt"
9.88235401528559,53.3310850678323,Mittelzentrum,"Buchholz in der Nordheide, Stadt"
14.6362611293535,51.4976619948692,Mittelzentrum,"Weihwasser/O.L., Stadt"
9.22367599203161,49.190414047718,Mittelzentrum,"Neckarsulm, Stadt"
9.69306602049427,49.2807119880689,Mittelzentrum,"Krnzelsau, Stadt"
9.50307099734508,49.2024079425082,Mittelzentrum,"Nhringen, Stadt"
10.0727569874551,49.133011068681,Mittelzentrum,"Crailsheim, Stadt"
9.73216497362832,49.1136129773869,Mittelzentrum,"Schwobisch Hall, Stadt"
9.77300900088401,49.4876900310056,Mittelzentrum,"Bad Mergentheim, Stadt"
9.66807500438722,49.625088009053,Mittelzentrum,"Tauberbischofsheim, Stadt"
9.51446904930165,49.7620119573621,Mittelzentrum,"Wertheim, Stadt"
14.8225361792112,51.2901340019949,Mittelzentrum,"Niesky, Stadt"
14.6645409753743,51.0937420006398,Mittelzentrum,"Lrbau, Stadt"
13.9185649514039,51.1156499957672,Mittelzentrum,"Radeberg, Stadt"
14.1024129324003,51.2754480159077,Mittelzentrum,"Kamenz, Stadt"
12.3727030664107,50.7390169931337,Mittelzentrum,"Werdau, Stadt"
9.97755498893918,53.386706899444,Mittelzentrum,Seevetal
8.7134889915507,49.0358119797719,Mittelzentrum,"Bretten, Stadt"
8.60045410190178,49.1229969795067,Mittelzentrum,"Bruchsal, Stadt"
8.40929489747843,48.9434090466828,Mittelzentrum,"Ettlingen, Stadt"
8.13486902802278,48.6938019946953,Mittelzentrum,"Bahl, Stadt"
10.200149990656,53.3676108637264,Mittelzentrum,"Winsen (Luhe), Stadt"
11.1588270169226,52.969012967524,Mittelzentrum,"Lichow (Wendland), Stadt"
8.21049909213738,48.8587070247164,Mittelzentrum,"Rastatt, Stadt"
12.7670230915219,50.8588180106533,Mittelzentrum,"Limbach-Oberfrohna, Stadt"
9.6654620167756,53.7562140668149,Mittelzentrum,"Elmshorn, Stadt"
9.32937400235575,49.520012031886,Mittelzentrum,"Buchen (Odenwald), Stadt"
9.15007799428155,49.3559070237336,Mittelzentrum,"Mosbach, Stadt"
8.98828205058777,49.4630129484873,Mittelzentrum,"Eberbach, Stadt"
8.57389194854081,49.3833119295137,Mittelzentrum,"Schwetzingen, Stadt"
8.87938399438318,49.2538149612773,Mittelzentrum,"Sinsheim, Stadt"
8.78498594527033,53.2264099792433,Mittelzentrum,"Osterholz-Scharmbeck, Stadt"
8.66453608385223,49.5508800329337,Mittelzentrum,"Weinheim, Stadt"
9.14827604598291,53.4868089595516,Mittelzentrum,"Bremervdrde, Stadt"
9.41116994085111,53.1102100322165,Mittelzentrum,"Rotenburg (W mme), Stadt"
8.72388692924845,48.5508120802546,Mittelzentrum,"Nagold, Stadt"
8.55489191656295,48.7491110338791,Mittelzentrum,"Bad Wildbad, Stadt"
8.74248801645345,48.7137149982139,Mittelzentrum,"Calw, Stadt"
8.8385849634168,48.9482119768183,Mittelzentrum,"Mahlacker, Stadt"
8.41049398115139,48.463810087499,Mittelzentrum,"Freudenstadt, Stadt"
8.69398893485796,48.447609027549,Mittelzentrum,"Horb am Neckar, Stadt"
12.5364029958826,50.8299139992974,Mittelzentrum,"Glauchau, Stadt"
9.2789730486235,53.2961120225545,Mittelzentrum,"Zeven, Stadt"
7.57943999071958,48.0334130025054,Mittelzentrum,"Breisach am Rhein, Stadt"
7.639712017296,47.8105090275887,Mittelzentrum,"Mellheim, Stadt"
10.0864529867724,52.985713978452,Mittelzentrum,"Munster, Stadt"
8.20790008370151,47.9190141088079,Mittelzentrum,"Titisee-Neustadt, Stadt"
7.8481080058873,48.1219141144724,Mittelzentrum,"Emmendingen, Stadt"
7.96010503556128,48.0943149711575,Mittelzentrum,"Waldkirch, Stadt"
8.07444002106263,48.6288450116822,Mittelzentrum,"Achern, Stadt"
9.83675902040555,52.9880139794388,Mittelzentrum,"Soltau, Stadt"
9.59356601048788,52.8606109405892,Mittelzentrum,"Walsrode, Stadt"
7.81620806995547,48.5729140370862,Mittelzentrum,"Kehl, Stadt"
7.84241598269045,48.3345408834788,Mittelzentrum,"Lahr/Schwarzwald, Stadt"
12.3858430081616,50.8191260026627,Mittelzentrum,"Crimmitschau, Stadt"
9.69286302671807,53.4689140402528,Mittelzentrum,"Buxtehude, Hansestadt"
8.62908894598395,48.1630099832817,Mittelzentrum,"Rottweil, Stadt"
8.42001403000886,48.22774490948,Mittelzentrum,"Schramberg, Stadt"
8.49739405453235,47.9551121314273,Mittelzentrum,"Donaueschingen, Stadt"
9.47816803566158,53.5979160256062,Mittelzentrum,"Stade, Hansestadt"
8.81988497824673,47.9831118642593,Mittelzentrum,"Tuttlingen, Stadt"
12.3019310091127,50.6186899923675,Mittelzentrum,"Reichenbach im Vogtland, Stadt"
8.97168301829806,47.7386128790225,Mittelzentrum,"Radolfzell am Bodensee, Stadt"
8.83388597408529,47.7637099797654,Mittelzentrum,"Singen (Hohentwiel), Stadt"
9.01578203431255,47.8541111286073,Mittelzentrum,"Stockach, Stadt"
12.1709570503822,50.4143980057593,Mittelzentrum,"Oelsnitz/Vogtl., Stadt"
7.78520904272414,47.5597150908704,Mittelzentrum,"Rheinfelden (Baden), Stadt"
7.82269007606146,47.6501851306717,Mittelzentrum,"Schopfheim, Stadt"
10.5597419966172,52.9648170060455,Mittelzentrum,"Uelzen, Stadt"
7.94693905178651,47.5568540925838,Mittelzentrum,"Bad Snckingen, Stadt"
8.22585208181087,47.6239849049666,Mittelzentrum,"Waldshut-Tiengen, Stadt"
9.28228997057515,48.5379491256732,Mittelzentrum,"Metzingen, Stadt"
9.50107003964538,48.4086069523293,Mittelzentrum,"Mensingen, Stadt"
9.03077903666094,53.0156140251834,Mittelzentrum,"Achim, Stadt"
8.93893695334285,48.4742008903876,Mittelzentrum,"Rottenburg am Neckar, Stadt"
9.23017403458972,52.9214280304112,Mittelzentrum,"Verden (Aller), Stadt"
8.85988500115446,48.2754099221895,Mittelzentrum,"Balingen, Stadt"
8.96488203570842,48.3510128863875,Mittelzentrum,"Hechingen, Stadt"
9.01988096902159,48.2531090928588,Mittelzentrum,"Albstadt, Stadt"
12.9802300435207,50.9826159996754,Mittelzentrum,"Mittweida, Stadt"
9.78775998777157,53.6592140367069,Mittelzentrum,"Pinneberg, Stadt"
9.72916597793146,48.2830091273872,Mittelzentrum,"Ehingen (Donau), Stadt"
11.5173919476223,51.0254750005594,Mittelzentrum,"Apolda, Stadt"
9.79266497673288,48.0965079568038,Mittelzentrum,"Biberach an der RiS, Stadt"
9.88192097821546,48.2363550096848,Mittelzentrum,"Laupheim, Stadt"
9.47657095223938,48.1532099273415,Mittelzentrum,"Riedlingen, Stadt"
13.338724904674,50.9141879968536,Mittelzentrum,"Freiberg, Stadt"
9.15143396692735,47.7790721091655,Mittelzentrum,"Tberlingen, Stadt"
9.75511398895553,47.9189340135612,Mittelzentrum,"Bad Waldsee, Stadt"
10.0243590109806,47.8260119470736,Mittelzentrum,"Leutkirch im Allgtu, Stadt"
13.1267830415937,51.1247139942628,Mittelzentrum,"Dubeln, Stadt"
9.83906399209673,47.6882130517506,Mittelzentrum,"Wangen im Allgau, Stadt"
12.7720009659336,50.7055049967551,Mittelzentrum,"Stollberg/Erzgeb., Stadt"
9.2556759659264,47.92291294862,Mittelzentrum,"Pfullendorf, Stadt"
9.51007101792701,48.0131109860396,Mittelzentrum,"Bad Saulgau, Stadt"
9.20827697516688,48.0857088773019,Mittelzentrum,"Sigmaringen, Stadt"
10.920501000419,50.6842039912257,Mittelzentrum,"Ilmenau, Stadt"
10.9475320044037,50.8385050074506,Mittelzentrum,"Arnstadt, Stadt"
13.1631740742329,50.6501080090689,Mittelzentrum,"Marienberg, Stadt"
10.7329699967295,50.424895993612,Mittelzentrum,"Hildburghausen, Stadt"
12.8298779536957,48.1685141184365,Mittelzentrum,"Burghausen, Stadt"
7.99980398781277,53.1848139839411,Mittelzentrum,Bad Zwischenahn
12.8763089360873,47.722163966949,Mittelzentrum,"Bad Reichenhall, GKSt"
13.002896050782,47.6333578856991,Mittelzentrum,"Berchtesgaden, Markt"
12.9822749494742,47.841243947881,Mittelzentrum,"Freilassing, Stadt"
8.19609998934665,53.2507099941139,Mittelzentrum,Rastede
11.5608100332047,47.7606090358848,Mittelzentrum,"Bad Tnlz, Stadt"
7.9288061100133,53.2585180058031,Mittelzentrum,"Westerstede, Stadt"
7.48361807141363,53.4728090688516,Mittelzentrum,"Aurich, Stadt"
11.4387269922667,48.2554129777105,Mittelzentrum,"Dachau, GKSt"
7.21572401605475,53.5930100199979,Mittelzentrum,"Norden, Stadt"
8.04220408841446,52.8484079493197,Mittelzentrum,"Cloppenburg, Stadt"
11.8683499583405,48.1911710264796,Mittelzentrum,"Markt Schwaben, Markt"
11.4717260171705,49.0358950389164,Mittelzentrum,"Beilngries, Stadt"
11.1870170107419,48.8904840260691,Mittelzentrum,"Eichstttt, GKSt"
12.1499839690697,48.2730528611209,Mittelzentrum,"Dorfen, Stadt"
11.9082170022465,48.3054121237253,Mittelzentrum,"Erding, GKSt"
7.85890809501568,53.0217130182917,Mittelzentrum,"Friesoythe, Stadt"
11.1215109771673,51.1602669927667,Mittelzentrum,"Semmerda, Stadt"
11.9347160357087,48.4669108792085,Mittelzentrum,"Moosburg a.d.Isar, Stadt"
7.2886219694362,52.6939090608609,Mittelzentrum,"Meppen, Stadt"
11.2505310215524,48.1750109195728,Mittelzentrum,"Firstenfeldbruck, GKSt"
11.3623223566707,48.1310992376575,Mittelzentrum,"Germering, GKSt"
7.39791902656835,53.079310951643,Mittelzentrum,"Papenburg, Stadt"
11.2016330224127,47.6751140087501,Mittelzentrum,"Murnau a.Staffelsee, Markt"
10.8780409902198,48.0477139329921,Mittelzentrum,"Landsberg am Lech, GKSt"
7.89924804553962,53.5754089096401,Mittelzentrum,"Jever, Stadt"
8.13840094418786,53.3951111102672,Mittelzentrum,"Varel, Stadt"
10.4533919992949,50.7251969956779,Mittelzentrum,"Schmalkalden, Kurort, Stadt"
11.7012450182289,47.8776259779534,Mittelzentrum,"Holzkirchen, Markt"
7.4632180515385,53.2374079928366,Mittelzentrum,"Leer (Ostfriesland), Stadt"
8.43901398741423,52.8976290629198,Mittelzentrum,"Wildeshausen, Stadt"
7.98010401058973,52.408610983158,Mittelzentrum,"Bramsche, Stadt"
12.5229220233637,48.246231031787,Mittelzentrum,"Mrhldorf a.Inn, Stadt"
12.4106059809368,48.2005158909876,Mittelzentrum,"Waldkraiburg, Stadt"
11.1764869845251,48.7345920464738,Mittelzentrum,"Neuburg a.d.Donau, GKSt"
11.2643020133336,48.5631288599256,Mittelzentrum,"Schrobenhausen, Stadt"
11.5067650447913,48.5300751029024,Mittelzentrum,"Pfaffenhofen a.d.Ilm, Stadt"
12.0016160391423,47.8596119511621,Mittelzentrum,"Bad Aibling, Stadt"
12.3445329618915,47.855482913915,Mittelzentrum,"Prien a.Chiemsee, Markt"
12.2232640299818,48.0621529838343,Mittelzentrum,"Wasserburg a.Inn, Stadt"
11.3435779867436,48.0019038780712,Mittelzentrum,"Starnberg, Stadt"
8.06410293663336,52.2057109830514,Mittelzentrum,"Georgsmarienhatte, Stadt"
8.3335461056459,52.199386983257,Mittelzentrum,"Melle, Stadt"
7.96280489344648,52.6815110056717,Mittelzentrum,"Quakenbrpck, Stadt"
11.0628030211443,47.7991470543539,Mittelzentrum,"Peirenberg, Markt"
8.23479890031979,52.6657140605402,Mittelzentrum,"Lohne (Oldenburg), Stadt"
11.3774509770344,47.7518620801032,Mittelzentrum,"Penzberg, Stadt"
8.29049693779686,52.7315139659686,Mittelzentrum,"Vechta, Stadt"
11.1455610144008,47.8399090987476,Mittelzentrum,"Weilheim i.OB, Stadt"
13.0130639008602,50.590499995125,Mittelzentrum,"Annaberg-Buchholz, Stadt"
11.8552040074799,53.4274638615583,Mittelzentrum,"Parchim, Stadt"
11.5008020158715,53.3179049925828,Mittelzentrum,"Ludwigslust, Stadt"
11.1987230245725,53.4279211168396,Mittelzentrum,"Hagenow, Stadt"
13.0195189305913,48.7022120461378,Mittelzentrum,"Osterhofen, Stadt"
13.7751829016577,54.0509489035281,Mittelzentrum,"Wolgast, Stadt"
13.5475260296431,48.8080560524716,Mittelzentrum,"Freyung, Stadt"
13.3978320429941,48.8602139653542,Mittelzentrum,"Grafenau, Stadt"
8.48125790430523,53.3245160359355,Mittelzentrum,"Brake (Unterweser), Stadt"
8.47399290024877,53.4875110028399,Mittelzentrum,"Nordenham, Stadt"
11.8810279719738,48.9192310202578,Mittelzentrum,"Kelheim, Stadt"
11.7870709596405,48.641853067205,Mittelzentrum,"Mainburg, Stadt"
7.78003302406981,53.5755419930476,Mittelzentrum,"Wittmund, Stadt"
12.027460973945,48.7026169427121,Mittelzentrum,"Rottenburg a.d.Laaber, Stadt"
12.3533729640236,48.4498479863956,Mittelzentrum,"Vilsbiburg, Stadt"
10.4202520021342,50.5709650082235,Mittelzentrum,"Meiningen, Stadt"
10.8609360063993,51.3722110091253,Mittelzentrum,"Sondershausen, Stadt"
11.2887709905812,51.3656769912833,Mittelzentrum,"Artern/Unstrut, Stadt"
13.3806700853851,48.7277410383221,Mittelzentrum,"Tittling, Markt"
13.184288027267,48.6341480203294,Mittelzentrum,"Vilshofen an der Donau, Stadt"
10.6460259959042,51.1050069959473,Mittelzentrum,"Bad Langensalza, Stadt"
12.8874940626225,49.0796129510827,Mittelzentrum,"Viechtach, Stadt"
10.2317840111959,50.8090589977835,Mittelzentrum,"Bad Salzungen, Stadt"
12.7625060956711,48.4035838691786,Mittelzentrum,"Eggenfelden, Stadt"
12.9457639422783,48.4325939810521,Mittelzentrum,"Pfarrkirchen, Stadt"
10.3246489964986,51.3919869997116,Mittelzentrum,"Leinefelde-Worbis, Stadt"
12.6894050056995,48.9099620139283,Mittelzentrum,"Bogen, Stadt"
12.2520140509158,48.776374045997,Mittelzentrum,"Mallersdorf-Pfaffenberg, Markt"
12.4959039448247,48.6332170147313,Mittelzentrum,"Dingolfing, Stadt"
12.6940000221037,48.6734160048153,Mittelzentrum,"Landau a.d.Isar, Stadt"
14.0418509840775,53.7368240423178,Mittelzentrum,"Ueckermwnde, Stadt"
13.9964889926212,53.5033380495452,Mittelzentrum,"Pasewalk, Stadt"
13.6932741105179,53.8533710142806,Mittelzentrum,"Anklam, Stadt"
11.7457189768234,49.5033109532689,Mittelzentrum,"Sulzbach-Rosenberg, Stadt"
12.6717990887314,49.2213129316075,Mittelzentrum,"Cham, Stadt"
10.1322269990509,51.3753319838049,Mittelzentrum,"Heilbad Heiligenstadt, Stadt"
12.8551939026337,49.1750140481582,Mittelzentrum,"Bad K tzting, Stadt"
12.5167580484833,49.1962949651033,Mittelzentrum,"Roding, Stadt"
12.7061559545792,49.3777259798751,Mittelzentrum,"Waldmnnchen, Stadt"
11.4565079877734,53.8904339613162,Mittelzentrum,"Wismar, Hansestadt"
11.7179199761279,49.1632119701816,Mittelzentrum,"Parsberg, Stadt"
6.88163097826921,51.4272080004739,Mittelzentrum,"Mrlheim an der Ruhr, Stadt"
6.85773097830875,51.4740139848529,Mittelzentrum,"Oberhausen, Stadt"
12.1707989644153,49.7306880681648,Mittelzentrum,"Neustadt a.d.Waldnaab, Stadt"
7.20922300530142,51.1794129935708,Mittelzentrum,"Remscheid, Stadt"
12.341701940801,49.6232169433256,Mittelzentrum,"VohenstrauS, Stadt"
12.1948390396929,48.9803889647816,Mittelzentrum,"Neutraubling, Stadt"
12.127569026362,49.1231370539917,Mittelzentrum,"Regenstauf, Markt"
7.08732600962469,51.1714130034596,Mittelzentrum,"Solingen, Klingenstadt"
12.6517879116038,51.8599850137435,Mittelzentrum,"Wittenberg, Lutherstadt"
12.1802409601426,49.4532410310641,Mittelzentrum,"Nabburg, Stadt"
12.3844579577075,49.3485710245988,Mittelzentrum,"Neunburg vorm Wald, Stadt"
12.4187710558459,49.4594220597052,Mittelzentrum,"Oberviechtach, Stadt"
12.1096489508303,49.3275109750397,Mittelzentrum,"Schwandorf, GKSt"
6.24665619571086,51.8340340310701,Mittelzentrum,"Emmerich am Rhein, Stadt"
11.8911840228156,49.8707379735194,Mittelzentrum,"Kemnath, Stadt"
12.3398050463923,49.8778149863547,Mittelzentrum,"Tirschenreuth, Stadt"
6.30784100155544,51.5163349697755,Mittelzentrum,"Geldern, Stadt"
11.1843479911575,53.8669279132687,Mittelzentrum,"Grevesmchlen, Stadt"
12.4361100503333,54.2429920447269,Mittelzentrum,"Ribnitz-Damgarten, Stadt"
13.0484649606988,54.1101150966485,Mittelzentrum,"Grimmen, Stadt"
13.4290670008725,54.4194149979968,Mittelzentrum,Bergen auf R
11.2908900136689,49.9371600093049,Mittelzentrum,"Hollfeld, Stadt"
11.5362630491698,49.7551159370813,Mittelzentrum,"Pegnitz, Stadt"
11.1220719875372,50.3268889992788,Mittelzentrum,"Neustadt b.Coburg, GKSt"
11.0487379792959,50.2957280068211,Mittelzentrum,"Radental, Stadt"
11.1842979884526,49.7798819745769,Mittelzentrum,"Ebermannstadt, Stadt"
11.0621339741808,49.7125130084624,Mittelzentrum,"Forchheim, GKSt"
11.7173170336168,50.2395410070571,Mittelzentrum,"Helmbrechts, Stadt"
11.7857359922619,50.1875839961789,Mittelzentrum,"Minchberg, Stadt"
11.7126300468018,50.3292659965406,Mittelzentrum,"Naila, Stadt"
12.033746026988,50.2486060270352,Mittelzentrum,"Rehau, Stadt"
11.3291419842706,50.2411269902207,Mittelzentrum,"Kronach, Stadt"
11.3883729730693,50.4853309972862,Mittelzentrum,"Ludwigsstadt, Stadt"
12.5738920694477,53.7682148719068,Mittelzentrum,"Teterow, Stadt"
6.15554890598127,51.6779100275284,Mittelzentrum,"Goch, Stadt"
6.24784598086885,51.5806119910556,Mittelzentrum,"Kevelaer, Stadt"
11.0635220046446,50.1471900213878,Mittelzentrum,"Lichtenfels, Stadt"
12.1834669839818,53.7939909436363,Mittelzentrum,"Grstrow, Stadt"
12.134321005762,50.1719589931886,Mittelzentrum,"Selb, GKSt"
11.9033929702244,54.1014900103785,Mittelzentrum,"Bad Doberan, Stadt"
12.6790990824778,53.5204659245958,Mittelzentrum,"Waren (Mgritz), Stadt"
13.0677199528557,53.3640329496883,Mittelzentrum,"Neustrelitz, Stadt"
13.0413519829789,53.904526070325,Mittelzentrum,"Demmin, Hansestadt"
13.5017690936057,53.1194290324329,Mittelzentrum,"Templin, Stadt"
14.2854050573718,53.0576949841633,Mittelzentrum,"Schwedt/Oder, Stadt"
10.3223519850601,49.071712060671,Mittelzentrum,"Dinkelsbfhl, GKSt"
10.3315110061202,49.1676949803879,Mittelzentrum,"Feuchtwangen, Stadt"
10.1920710024861,49.3746219416413,Mittelzentrum,"Rothenburg ob der Tauber, GKSt"
10.8839029980566,49.5685649324812,Mittelzentrum,"Herzogenaurach, Stadt"
10.8064520056269,49.7038160352054,Mittelzentrum,"Hechstadt a.d.Aisch, Stadt"
11.3555559889063,49.3857870485651,Mittelzentrum,"Altdorf b.Ntrnberg, Stadt"
11.4322919851493,49.5080150228988,Mittelzentrum,"Hersbruck, Stadt"
11.2795370137643,49.5121379987338,Mittelzentrum,"Lauf a.d.Pegnitz, Stadt"
10.4203700054727,49.5006979514444,Mittelzentrum,"Bad Windsheim, Stadt"
10.6103209898754,49.5796430036912,Mittelzentrum,"Neustadt a.d.Aisch, Stadt"
10.2314859974513,49.5441969725537,Mittelzentrum,"Uffenheim, Stadt"
11.0920519930987,49.2478870573309,Mittelzentrum,"Roth, Stadt"
10.7552599905095,49.1174389830698,Mittelzentrum,"Gunzenhausen, Stadt"
10.9087000061157,48.9556280375951,Mittelzentrum,"Treuchtlingen, Stadt"
10.9725709896606,49.0335040251976,Mittelzentrum,"Weiuenburg i.Bay., GKSt"
13.8620890351133,53.3101569444459,Mittelzentrum,"Prenzlau, Stadt"
13.4494660128257,52.2156250662376,Mittelzentrum,"Zossen, Stadt"
13.2609669734044,52.3018020694768,Mittelzentrum,"Ludwigsfelde, Stadt"
9.06807902818599,50.0866089859061,Mittelzentrum,"Alzenau, Stadt"
6.14313718555352,51.789821989194,Mittelzentrum,"Kleve, Stadt"
6.91262991603906,51.2276079898676,Mittelzentrum,"Erkrath, Fundort des Neanderthalers, Stadt"
9.78656300386166,50.3081129694754,Mittelzentrum,"Bad Brcckenau, Stadt"
10.0770559914721,50.200409027058,Mittelzentrum,"Bad Kissingen, GKSt"
9.88946100152368,50.1152079925733,Mittelzentrum,"Hammelburg, Stadt"
10.2111020136894,50.320838972431,Mittelzentrum,"Bad Neustadt a.d.Saale, Stadt"
10.4675229931917,50.2992210059928,Mittelzentrum,"Bad Knnigshofen i.Grabfeld, Stadt"
10.3015109997483,50.4265730150352,Mittelzentrum,"Mellrichstadt, Stadt"
10.7938789981523,50.0953269771865,Mittelzentrum,"Ebern, Stadt"
10.5122989951316,50.0335199988346,Mittelzentrum,"Hatfurt, Stadt"
10.1557550103863,49.7372129473211,Mittelzentrum,"Kitzingen, GKSt"
7.0167510836628,51.2014470024294,Mittelzentrum,"Haan, Stadt"
6.95632799916187,51.3246120160396,Mittelzentrum,"Heiligenhaus, Stadt"
9.25549105269849,49.7006649347059,Mittelzentrum,"Miltenberg, Stadt"
6.93712902265501,51.1665120032633,Mittelzentrum,"Hilden, Stadt"
9.70079398508434,50.0502180084882,Mittelzentrum,"Gemmnden a.Main, Stadt"
9.76531998286626,49.9602169683038,Mittelzentrum,"Karlstadt, Stadt"
9.57656794577133,49.9949070189265,Mittelzentrum,"Lohr a.Main, Stadt"
9.60086700883589,49.8472100329142,Mittelzentrum,"Marktheidenfeld, Stadt"
10.350203995182,49.900269009718,Mittelzentrum,"Gerolzhofen, Stadt"
10.0678360001605,49.6632040328547,Mittelzentrum,"Ochsenfurt, Stadt"
13.1734010563017,52.0890399949234,Mittelzentrum,"Luckenwalde, Stadt"
13.0803320500949,51.9914140144364,Mittelzentrum,"Jpterbog, Stadt"
14.3795399729592,51.5717399706786,Mittelzentrum,"Spremberg, Stadt"
14.7166169620039,51.9512660311119,Mittelzentrum,"Guben, Stadt"
11.1340130011192,48.4612658865659,Mittelzentrum,"Aichach, Stadt"
10.9854380209041,48.3557131368575,Mittelzentrum,"Friedberg, Stadt"
6.95402896602678,51.1101109961164,Mittelzentrum,"Langenfeld (Rheinland), Stadt"
6.98102902095189,51.246613016098,Mittelzentrum,"Mettmann, Stadt"
10.8500310007113,48.5461388963028,Mittelzentrum,"Meitingen, Markt"
10.7567310003995,48.1851119562193,Mittelzentrum,"Schwabmonchen, Stadt"
6.89532995849764,51.090907995297,Mittelzentrum,"Monheim am Rhein, Stadt"
6.84973091330578,51.2973100059496,Mittelzentrum,"Ratingen, Stadt"
10.6832250014762,48.560689936065,Mittelzentrum,"Wertingen, Stadt"
10.4062769920878,48.4317331252888,Mittelzentrum,"Burgau, Stadt"
7.05472692550405,51.3390079834667,Mittelzentrum,"Velbert, Stadt"
10.305102000347,48.3708749907466,Mittelzentrum,"Ichenhausen, Stadt"
10.3654520045638,48.2423130597682,Mittelzentrum,"Krumbach (Schwaben), Stadt"
7.03462606608502,51.2836109848464,Mittelzentrum,"Welfrath, Stadt"
10.1058390078408,48.2236330667689,Mittelzentrum,"Illertissen, Stadt"
14.6452798658338,51.7445819834014,Mittelzentrum,"Forst (Lausitz), Stadt"
6.82633210280759,51.0886120006862,Mittelzentrum,"Dormagen, Stadt"
6.59500981093591,51.0872269901075,Mittelzentrum,"Grevenbroich, Stadt"
10.1575339995179,48.3057228945278,Mittelzentrum,"Weirenhorn, Stadt"
9.70473398482471,47.5538830090928,Mittelzentrum,"Lindau (Bodensee), GKSt"
9.88390097288281,47.5999950993546,Mittelzentrum,"Lindenberg i.Allg,u, Stadt"
10.7234509929633,48.0359200707349,Mittelzentrum,"Buchloe, Stadt"
10.6969859975139,47.5677219090066,Mittelzentrum,"Fussen, Stadt"
10.6192949971555,47.7793008887899,Mittelzentrum,"Marktoberdorf, Stadt"
10.5935470000389,48.0021129863605,Mittelzentrum,"Bad Whrishofen, Stadt"
10.4916630057751,48.0490528948661,Mittelzentrum,"Mindelheim, Stadt"
10.7789829885993,48.7232590023376,Mittelzentrum,"Donauw-rth, GKSt"
10.4899930022333,48.8509449977713,Mittelzentrum,"Nordlingen, GKSt"
10.9168210097924,48.690752950055,Mittelzentrum,"Rain, Stadt"
6.60983719443873,51.2228090091766,Mittelzentrum,"Kaarst, Stadt"
10.2741789920597,47.4108770196488,Mittelzentrum,"Oberstdorf, Markt"
6.51553893311337,51.1931079979818,Mittelzentrum,"Korschenbroich, Stadt"
6.67303187994823,51.26472899542,Mittelzentrum,"Meerbusch, Stadt"
6.86392995925172,49.251308027898,Mittelzentrum,"Vulklingen, Stadt"
6.6341707976716,49.4411849539751,Mittelzentrum,"Merzig, Kreisstadt"
6.89577994353645,49.5367319465684,Mittelzentrum,"Wadern, Stadt"
7.17531893021077,49.3484919282272,Mittelzentrum,"Neunkirchen, Kreisstadt"
6.73111595506014,49.3506550184184,Mittelzentrum,"Dillingen/ Saar, Stadt"
6.91542889880054,49.4104080202955,Mittelzentrum,"Lebach, Stadt"
6.75823301230737,49.3195110445773,Mittelzentrum,"Saarlouis, Kreisstadt"
7.26021998817342,49.2412109755805,Mittelzentrum,"Blieskastel, Stadt"
7.33152005814349,49.3245090413989,Mittelzentrum,"Homburg, Kreisstadt"
7.1163239025696,49.2875140541528,Mittelzentrum,"St. Ingbert, Stadt"
7.16959710593607,49.4678799588512,Mittelzentrum,"St. Wendel, Kreisstadt"
6.69623406898639,51.1968120028358,Mittelzentrum,"Neuss, Stadt"
6.42104106268563,51.3638110195991,Mittelzentrum,"Kempen, Stadt"
6.28024483534462,51.307208996967,Mittelzentrum,"Nettetal, Stadt"
13.2685559772678,52.4006270415709,Mittelzentrum,"Teltow, Stadt"
12.5872509925394,52.1398399824816,Mittelzentrum,"Bad Belzig, Stadt"
13.5873180996661,52.6792540235815,Mittelzentrum,"Bernau bei Berlin, Stadt"
13.8209430335752,52.834013013155,Mittelzentrum,"Eberswalde, Stadt"
13.6293300009668,52.2965580018943,Mittelzentrum,"Kbnigs Wusterhausen, Stadt"
13.8969659075395,51.9414689849409,Mittelzentrum,"Lbbben (Spreewald), Stadt"
6.27469189730522,51.2128790033083,Mittelzentrum,Schwalmtal
6.49073897091543,51.3219150018371,Mittelzentrum,"Tcnisvorst, Stadt"
6.39380906193941,51.2567599965139,Mittelzentrum,"Viersen, Stadt"
6.55283791114839,51.2663119830579,Mittelzentrum,"Willich, Stadt"
13.7083149454869,51.6315960343023,Mittelzentrum,"Finsterwalde, Stadt"
13.2352070084211,51.6923809827257,Mittelzentrum,"Herzberg (Elster), Stadt"
13.0913870019737,52.5602770582574,Mittelzentrum,"Falkensee, Stadt"
12.8770920361853,52.606827052426,Mittelzentrum,"Nauen, Stadt"
12.3488700205491,52.6040710022349,Mittelzentrum,"Rathenow, Stadt"
14.0291869871156,52.7878229460786,Mittelzentrum,"Bad Freienwalde (Oder), Stadt"
13.7030309347381,52.5216540555381,Mittelzentrum,Neuenhagen bei Berlin
14.3840341193691,52.5327509404999,Mittelzentrum,"Seelow, Stadt"
13.8806260846739,52.5806850326579,Mittelzentrum,"Strausberg, Stadt"
6.73833391937059,51.5639079998152,Mittelzentrum,"Dinslaken, Stadt"
13.2050520422603,52.6382799959054,Mittelzentrum,"Hennigsdorf, Stadt"
13.2370350560884,52.7542700192931,Mittelzentrum,"Oranienburg, Stadt"
6.59613787221237,51.7378119640352,Mittelzentrum,"Hamminkeln, Stadt"
6.54439314426518,51.5086250182822,Mittelzentrum,"Kamp-Lintfort, Stadt"
6.63553692432814,51.4510080044519,Mittelzentrum,"Moers, Stadt"
13.9531409132976,51.8634070012322,Mittelzentrum,"Labbenau/Spreewald, Stadt"
6.54633784700891,51.440514006454,Mittelzentrum,"Neukirchen-Vluyn, Stadt"
6.601736832833,51.5446130207787,Mittelzentrum,"Rheinberg, Stadt"
14.2468900936537,52.1724780522981,Mittelzentrum,"Beeskow, Stadt"
14.6293839532838,52.1461649874455,Mittelzentrum,"Eisenhwttenstadt, Stadt"
13.7521330143107,52.423718999402,Mittelzentrum,"Erkner, Stadt"
14.0614189354687,52.3604810206114,Mittelzentrum,"Frrstenwalde/Spree, Stadt"
12.3976239569662,52.9425480011692,Mittelzentrum,"Kyritz, Stadt"
12.8046919825643,52.9244079722824,Mittelzentrum,"Neuruppin, Stadt"
6.69119398245383,51.6146240242789,Mittelzentrum,"Voerde (Niederrhein), Stadt"
6.62521312271987,51.6610720051476,Mittelzentrum,"Wesel, Stadt"
11.3637000023889,50.6490520056968,Mittelzentrum,"Saalfeld/Saale, Stadt"
8.74903895878932,50.3630450293988,Mittelzentrum,"Bad Nauheim, Stadt"
10.5614639978336,51.8863300319685,Mittelzentrum,"Bad Harzburg, Stadt"
10.3359490035614,51.8045119770844,Mittelzentrum,"Clausthal-Zellerfeld, Bergstadt"
10.4256350012806,51.9117009940006,Mittelzentrum,"Goslar, Stadt"
10.1803520046677,51.8925129789128,Mittelzentrum,"Seesen, Stadt"
11.3428916930631,50.7214659638596,Mittelzentrum,"Rudolstadt, Stadt"
11.2736249930609,50.6831820105137,Mittelzentrum,"Bad Blankenburg, Stadt"
10.6737050043085,50.655094005685,Mittelzentrum,"Zella-Mehlis, Stadt"
10.6873870026781,50.6108400157036,Mittelzentrum,"Suhl, Stadt"
8.05975405051572,50.3857230129853,Mittelzentrum,"Limburg a.d. Lahn, Kreisstadt"
8.75129904344976,50.3308869961801,Mittelzentrum,"Friedberg (Hessen), Kreisstadt"
9.71456399451369,50.866107997502,Mittelzentrum,"Bad Hersfeld, Kreisstadt"
7.20542390009699,53.3646160372515,Mittelzentrum,"Emden, Stadt"
7.32720003531661,52.5218930232802,Mittelzentrum,"Lingen (Ems), Stadt"
10.7172270037898,50.9419979956834,Mittelzentrum,"Gotha, Stadt"
9.73466199058275,52.4388120532024,Mittelzentrum,"Langenhagen, Stadt"
7.06242798989897,52.4327129877308,Mittelzentrum,"Nordhorn, Stadt"
10.4647140005913,51.2064319958431,Mittelzentrum,Mrhlhausen/Th
10.7898460121688,51.4988060133878,Mittelzentrum,"Nordhausen, Stadt"
8.23519798731674,48.7671169363918,Mittelzentrum,"Baden-Baden, Stadt"
10.3143549934394,50.9807009961216,Mittelzentrum,"Eisenach, Stadt"
11.3193250015499,50.979411999286,Mittelzentrum,"Weimar, Stadt"
10.0917439927924,48.8353499753021,Mittelzentrum,"Aalen, Stadt"
9.80146399963886,48.7967109507772,Mittelzentrum,"Schwkbisch Gmtnd, Stadt"
9.35457197302997,52.1081120135708,Mittelzentrum,"Hameln, Stadt"
10.1261560056537,48.9590070139838,Mittelzentrum,"Ellwangen (Jagst), Stadt"
10.1504559938378,48.6786120499659,Mittelzentrum,"Heidenheim an der Brenz, Stadt"
7.36481598303442,49.2452429322081,Mittelzentrum,"Zweibr cken, Stadt"
8.3478960307844,49.6317100262458,Mittelzentrum,"Worms, Stadt"
8.43431405656295,49.3179890328751,Mittelzentrum,"Speyer, Stadt"
8.12080802513927,49.1955680171971,Mittelzentrum,"Landau in der Pfalz, Stadt"
8.00352404283944,50.3708989671238,Mittelzentrum,"Diez, Stadt"
11.8654730119138,52.5977630316715,Mittelzentrum,"Stendal, Hansestadt"
9.98475499607914,54.0752141358071,Mittelzentrum,"Neumcnster, Stadt"
11.0596059965324,51.89698000952,Mittelzentrum,"Halberstadt, Stadt"
8.42310996595647,49.9890860205698,Mittelzentrum,"Risselsheim, Stadt"
12.443002993282,50.9922829999721,Mittelzentrum,"Altenburg, Stadt"
8.63798900448667,53.0512120324807,Mittelzentrum,"Delmenhorst, Stadt"
12.9626859130971,48.8329999447412,Oberzentrum,"Deggendorf, GKSt"
8.68058902109829,50.5836109964164,Oberzentrum,"Gienen, Universit,tsstadt"
10.0017589752892,48.3925129515494,Oberzentrum,"Neu-Ulm, GKSt"
14.979735154018,51.1458049932624,Oberzentrum,"Gbrlitz, Stadt"
14.2479901051061,51.4385069837713,Oberzentrum,"Hoyerswerda, Stadt"
14.4227800407067,51.1793860009822,Oberzentrum,"Bautzen, Stadt"
7.66170589644361,47.6100850678418,Oberzentrum,"Larrach, Stadt"
7.61135704600771,47.5946809082817,Oberzentrum,"Weil am Rhein, Stadt"
9.20654594871123,48.4965780213061,Oberzentrum,"Reutlingen, Stadt"
9.05977995404698,48.5223119312031,Oberzentrum,"Tobingen, Universitrtsstadt"
9.98496000313876,48.3996089306656,Oberzentrum,"Ulm, Universitttsstadt"
9.487222019777,47.6543851018807,Oberzentrum,"Friedrichshafen, Stadt"
9.61270103124987,47.7867130146096,Oberzentrum,"Ravensburg, Stadt"
9.63865897990201,47.8127439109672,Oberzentrum,"Weingarten, Stadt"
8.50208190957719,50.5632169891843,Oberzentrum,"Wetzlar, Stadt"
12.8716959817738,48.7798120424778,Oberzentrum,"Plattling, Stadt"
13.3884281075171,54.0926400603189,Oberzentrum,"Greifswald, Hansestadt"
13.0891659359731,54.306006959565,Oberzentrum,"Stralsund, Hansestadt"
12.0903080450986,50.0060459802323,Oberzentrum,"Marktredwitz, GKSt"
12.007112953492,50.0383110030055,Oberzentrum,"Wunsiedel, Stadt"
11.0042349781079,49.5881080606817,Oberzentrum,Erlangen
10.9674360028801,49.4830090536436,Oberzentrum,Frrth
11.075934013147,49.4467120463705,Oberzentrum,Nrrnberg
10.7980380021565,52.4282069732909,Oberzentrum,"Wolfsburg, Stadt"
10.3265489948305,52.1617129898238,Oberzentrum,"Salzgitter, Stadt"
11.025414984736,49.3287160488859,Oberzentrum,Schwabach
10.5363429941566,52.2765120210025,Oberzentrum,"Braunschweig, Stadt"
7.76850907479656,49.4454119396769,Oberzentrum,"Kaiserslautern, Stadt"
10.5772149966546,49.304519937466,Oberzentrum,Ansbach
13.0600950141451,52.3945449626557,Oberzentrum,"Potsdam, Stadt"
10.1787560067856,47.9837149296387,Oberzentrum,Memmingen
11.4535249818027,50.1075129987918,Oberzentrum,"Kulmbach, GKSt"
11.9045140058793,50.3176119758954,Oberzentrum,Hof
10.9683349759009,50.2631070190116,Oberzentrum,Coburg
11.5836219519258,49.9476090222565,Oberzentrum,Bayreuth
9.21217599894978,49.1405140006696,Oberzentrum,"Heilbronn, Stadt"
9.1843770210461,48.7822149734966,Oberzentrum,"Stuttgart, Landeshauptstadt"
10.3233920019285,47.7260441229681,Oberzentrum,Kempten (Allg
10.896838002647,49.8960109793141,Oberzentrum,Bamberg
11.4606259611245,49.2770079750042,Oberzentrum,"Neumarkt i.d.OPf., GKSt"
8.26199800115901,50.000117966374,Oberzentrum,"Mainz, Stadt"
8.44389400724605,49.4786110177706,Oberzentrum,"Ludwigshafen am Rhein, Stadt"
12.159610032368,49.6790119646327,Oberzentrum,Weiden i.d.OPf.
14.5508339134368,52.3417980274051,Oberzentrum,"Frankfurt (Oder), Stadt"
6.64263499373605,49.7606090236341,Oberzentrum,"Trier, Stadt"
12.3777009794747,51.3430140150339,Oberzentrum,"Leipzig, Stadt"
10.6244919947406,47.8812071092856,Oberzentrum,Kaufbeuren
7.58642790058208,50.360790003018,Oberzentrum,"Koblenz, Stadt"
10.1294509847014,54.3199121039325,Oberzentrum,"Kiel, Landeshauptstadt"
12.0984130198479,49.0213130432666,Oberzentrum,Regensburg
9.67776502307494,50.547809994712,Oberzentrum,"Fulda, Stadt"
9.50306897418078,51.3215139961522,Oberzentrum,"Kassel, documenta-Stadt"
8.76773696718702,50.8059960082745,Oberzentrum,"Marburg, Universitftsstadt"
11.8580170159152,49.4429129983982,Oberzentrum,Amberg
10.89764000066,48.3594088791958,Oberzentrum,Augsburg
12.2429970495669,51.8290629646943,Oberzentrum,"Dessau-Rotlau, Stadt"
11.9827879807122,51.4786680152352,Oberzentrum,"Halle (Saale), Stadt"
11.6337170255516,52.1294139749167,Oberzentrum,"Magdeburg, Landeshauptstadt"
9.94458202461746,49.7986069393452,Oberzentrum,Wcrzburg
12.5706009025733,48.8798180569642,Oberzentrum,Straubing
13.4595810335666,48.5711170331671,Oberzentrum,Passau
8.91295704578691,50.1234630088821,Oberzentrum,"Hanau, Brcder-Grimm-Stadt"
12.918188949047,50.8268129925625,Oberzentrum,"Chemnitz, Stadt"
8.23839997871448,50.0715100047783,Oberzentrum,"Wiesbaden, Landeshauptstadt"
8.76718695477043,50.1006129840968,Oberzentrum,"Offenbach am Main, Stadt"
8.68868800139313,50.1099129696115,Oberzentrum,"Frankfurt am Main, Stadt"
8.6449901066787,49.872008980005,Oberzentrum,"Darmstadt, Wissenschaftsstadt"
12.1468430411903,48.5443760430284,Oberzentrum,Landshut
8.01624108487836,50.8705020058606,Oberzentrum,"Siegen, Universitttsstadt"
7.47781607895239,51.3620069894366,Oberzentrum,"Hagen, Stadt der FernUniversittt"
7.45591700555124,51.5144079880615,Oberzentrum,"Dortmund, Stadt"
7.22172307912517,51.4789120191173,Oberzentrum,"Bochum, Stadt"
8.74619201530504,51.7156870235641,Oberzentrum,"Paderborn, Stadt"
8.5254971008163,52.0168840063888,Oberzentrum,"Bielefeld, Stadt"
7.63061305121853,51.9649119852052,Oberzentrum,"Menster, Stadt"
6.09565662883778,50.7788762774834,Oberzentrum,"Aachen, Stadt"
6.93952903098433,50.9370120041566,Oberzentrum,"Koln, Stadt"
7.09672490847826,50.7374080055932,Oberzentrum,"Bonn, Stadt"
12.6495729847604,47.8702350135435,Oberzentrum,"Traunstein, GKSt"
7.15172410905013,51.2567140011067,Oberzentrum,"Wuppertal, Stadt"
11.0428640151948,50.9717749998595,Oberzentrum,"Erfurt, Stadt"
12.0797089488293,50.8725130007419,Oberzentrum,"Gera, Stadt"
11.5880740324845,50.9303440009714,Oberzentrum,"Jena, Stadt"
11.1022829895191,47.4957281282579,Oberzentrum,"Garmisch-Partenkirchen, Markt"
11.7423070111785,48.4007381064549,Oberzentrum,"Freising, GKSt"
12.1341129602601,47.8505171022975,Oberzentrum,Rosenheim
6.43284111793038,51.1903080058663,Oberzentrum,"Mrnchengladbach, Stadt"
6.56523806793197,51.334110004676,Oberzentrum,"Krefeld, Stadt"
11.5679239716887,48.1402130391672,Oberzentrum,"Mnnchen, Landeshauptstadt"
7.01302791124947,51.4520110036042,Oberzentrum,"Essen, Stadt"
6.76643293493506,51.4314119831423,Oberzentrum,"Duisburg, Stadt"
11.436027010276,48.7684100352493,Oberzentrum,Ingolstadt
6.78193289830682,51.2313119887877,Oberzentrum,"Drsseldorf, Stadt"
8.59079003004173,53.5404088764456,Oberzentrum,"Bremerhaven, Stadt"
8.81168504005546,53.0720139365163,Oberzentrum,"Bremen, Stadt"
10.2355530045395,50.0496100063506,Oberzentrum,Schweinfurt
9.14821298858698,49.9766010037638,Oberzentrum,Aschaffenburg
14.3334109251308,51.7572910027331,Oberzentrum,"Cottbus, Stadt"
12.54991305789,52.4115709836818,Oberzentrum,"Brandenburg an der Havel, Stadt"
8.1257020461661,53.5276110895428,Oberzentrum,"Wilhelmshaven, Stadt"
8.05587397923112,52.2767300200423,Oberzentrum,"Osnabruck, Stadt"
8.21459896705657,53.1452100016657,Oberzentrum,"Oldenburg (Oldenburg), Stadt"
12.127156054359,54.0853959508862,Oberzentrum,"Rostock, Hansestadt"
11.4002160001098,53.6353340227725,Oberzentrum,"Schwerin, Landeshauptstadt"
10.4042449935389,53.2523159861555,Oberzentrum,"Lmneburg, Hansestadt"
10.0800539996938,52.6233139510979,Oberzentrum,"Celle, Stadt"
13.3849740620796,52.5097120186212,Oberzentrum,"Berlin, Stadt"
13.2671310724574,53.5571139164872,Oberzentrum,"Neubrandenburg, Stadt"
9.95360897250125,52.1501879991765,Oberzentrum,"Hildesheim, Stadt"
12.1274080423505,50.491409008551,Oberzentrum,"Plauen, Stadt"
9.178584954095,47.6687930609903,Oberzentrum,"Konstanz, Universitatsstadt"
9.72916298032463,52.3745080180897,Oberzentrum,"Hannover, Landeshauptstadt"
8.4656929947024,48.0683140077878,Oberzentrum,"Villingen-Schwenningen, Stadt"
7.93830599649565,48.4687079491266,Oberzentrum,"Offenburg, Stadt"
7.83970705103768,47.9921111137,Oberzentrum,"Freiburg im Breisgau, Stadt"
8.7048279186246,48.8933829961905,Oberzentrum,"Pforzheim, Stadt"
9.92755898436384,51.533409005446,Oberzentrum,"Glttingen, Stadt"
8.45809403918418,49.4838099775091,Oberzentrum,"Mannheim, Universit"
8.68508792488944,49.4050140108112,Oberzentrum,"Heidelberg, Stadt"
8.40439497910917,49.0056080527551,Oberzentrum,"Karlsruhe, Stadt"
6.99862701946914,49.2401079611398,Oberzentrum,"Saarbrscken, Landeshauptstadt"
12.4902989039256,50.7183070020861,Oberzentrum,"Zwickau, Stadt"
10.0064540057298,53.5533140367979,Oberzentrum,"Hamburg, Freie und Hansestadt"
13.7392689224426,51.0474130026433,Oberzentrum,"Dresden, Stadt"
10.6725379999123,53.8690111172396,Oberzentrum,"Libeck, Hansestadt"
9.43427198343133,54.779159994714,Oberzentrum,"Flensburg, Stadt"
